{"STP01": {"CITY": "St. Petersburg", "End_Y": "2013", "Start_M": "3", "END": "20130923", "NAME": "Tropicana Field", "LEAGUE": "AL", "Start_D": "31", "Longitude": "-82.653431", "START": "19980331", "STATE": "FL", "End_M": "9", "Start_Y": "1998", "Latitude": "27.768254", "AKA": "", "Exact": "Y", "NOTES": "", "Altitude": "41", "End_D": "23"}, "TOR02": {"CITY": "Toronto", "End_Y": "2013", "Start_M": "6", "END": "20130929", "NAME": "Rogers Centre", "LEAGUE": "AL", "Start_D": "5", "Longitude": "-79.389054", "START": "19890605", "STATE": "ONT", "End_M": "9", "Start_Y": "1989", "Latitude": "43.641256", "AKA": "Skydome", "Exact": "Y", "NOTES": "", "Altitude": "268", "End_D": "29"}, "STL10": {"CITY": "St. Louis", "End_Y": "2013", "Start_M": "4", "END": "20130929", "NAME": "Busch Stadium III", "LEAGUE": "NL", "Start_D": "10", "Longitude": "-90.192841", "START": "20060410", "STATE": "MO", "End_M": "9", "Start_Y": "2006", "Latitude": "38.622622", "AKA": "", "Exact": "Y", "NOTES": "", "Altitude": "438", "End_D": "29"}, "IND05": {"CITY": "Indianapolis", "End_Y": "1889", "Start_M": "4", "END": "18891005", "NAME": "Seventh Street Park III", "LEAGUE": "NL", "Start_D": "20", "Longitude": "-86.162256", "START": "18880420", "STATE": "IN", "End_M": "10", "Start_Y": "1888", "Latitude": "39.789401", "AKA": "Athletic Park", "Exact": "Y", "NOTES": "", "Altitude": "715", "End_D": "5"}, "PIT02": {"CITY": "Pittsburgh", "End_Y": "1883", "Start_M": "5", "END": "18830906", "NAME": "Exposition Park I", "LEAGUE": "", "Start_D": "10", "Longitude": "-80.010704", "START": "18820510", "STATE": "PA", "End_M": "9", "Start_Y": "1882", "Latitude": "40.445937", "AKA": "Lower Field", "Exact": "Y", "NOTES": "PT1:1882-1883; PTU: 8/25 to 8/30/1884", "Altitude": "729", "End_D": "6"}, "PIT03": {"CITY": "Pittsburgh", "End_Y": "1884", "Start_M": "5", "END": "18840830", "NAME": "Exposition Park II", "LEAGUE": "AA", "Start_D": "1", "Longitude": "-80.010704", "START": "18830501", "STATE": "PA", "End_M": "8", "Start_Y": "1883", "Latitude": "40.445937", "AKA": "Upper Field", "Exact": "Y", "NOTES": "PT1", "Altitude": "729", "End_D": "30"}, "PIT01": {"CITY": "Pittsburgh", "End_Y": "1878", "Start_M": "8", "END": "18780824", "NAME": "Union Park", "LEAGUE": "NL", "Start_D": "22", "Longitude": "-80.030175", "START": "18780822", "STATE": "PA", "End_M": "8", "Start_Y": "1878", "Latitude": "40.452295", "AKA": "", "Exact": "Y", "NOTES": "PRO: 3 games", "Altitude": "767", "End_D": "24"}, "PIT06": {"CITY": "Pittsburgh", "End_Y": "1970", "Start_M": "6", "END": "19700628", "NAME": "Forbes Field", "LEAGUE": "NL", "Start_D": "30", "Longitude": "-79.953449", "START": "19090630", "STATE": "PA", "End_M": "6", "Start_Y": "1909", "Latitude": "40.441302", "AKA": "", "Exact": "Y", "NOTES": "", "Altitude": "893", "End_D": "28"}, "PIT07": {"CITY": "Pittsburgh", "End_Y": "2000", "Start_M": "7", "END": "20001001", "NAME": "Three Rivers Stadium", "LEAGUE": "NL", "Start_D": "16", "Longitude": "-80.012614", "START": "19700716", "STATE": "PA", "End_M": "10", "Start_Y": "1970", "Latitude": "40.446533", "AKA": "", "Exact": "Y", "NOTES": "", "Altitude": "730", "End_D": "1"}, "NYC18": {"CITY": "Queens", "End_Y": "1890", "Start_M": "4", "END": "18900608", "NAME": "Wallace's Ridgewood Park", "LEAGUE": "AA", "Start_D": "24", "Longitude": "-73.90502", "START": "18870424", "STATE": "NY", "End_M": "6", "Start_Y": "1887", "Latitude": "40.694886", "AKA": "Ridgewood Park II; Wallace's Grounds", "Exact": "Y", "NOTES": "BR3: Sundays (1887-89); BR4: 1890", "Altitude": "71", "End_D": "8"}, "PIT05": {"CITY": "Pittsburgh", "End_Y": "1915", "Start_M": "4", "END": "19151002", "NAME": "Exposition Park III", "LEAGUE": "", "Start_D": "19", "Longitude": "-80.010704", "START": "18900419", "STATE": "PA", "End_M": "10", "Start_Y": "1890", "Latitude": "40.445937", "AKA": "New Expo", "Exact": "Y", "NOTES": "PTP:1890; PIT:1891-6/29/1909; PTF:1914-15", "Altitude": "729", "End_D": "2"}, "DEN01": {"CITY": "Denver", "End_Y": "1994", "Start_M": "4", "END": "19940811", "NAME": "Mile High Stadium", "LEAGUE": "NL", "Start_D": "9", "Longitude": "-105.021939", "START": "19930409", "STATE": "CO", "End_M": "8", "Start_Y": "1993", "Latitude": "39.746293", "AKA": "", "Exact": "Y", "NOTES": "", "Altitude": "5211", "End_D": "11"}, "BAL11": {"CITY": "Baltimore", "End_Y": "1991", "Start_M": "4", "END": "19911006", "NAME": "Memorial Stadium", "LEAGUE": "AL", "Start_D": "15", "Longitude": "-76.601488", "START": "19540415", "STATE": "MD", "End_M": "10", "Start_Y": "1954", "Latitude": "39.330001", "AKA": "", "Exact": "Y", "NOTES": "", "Altitude": "231", "End_D": "6"}, "BAL10": {"CITY": "Baltimore", "End_Y": "1915", "Start_M": "4", "END": "19151002", "NAME": "Terrapin Park", "LEAGUE": "FL", "Start_D": "13", "Longitude": "-76.60991", "START": "19140413", "STATE": "MD", "End_M": "10", "Start_Y": "1914", "Latitude": "39.324001", "AKA": "Federal League Park; Oriole Park", "Exact": "Y", "NOTES": "", "Altitude": "203", "End_D": "2"}, "SFO02": {"CITY": "San Francisco", "End_Y": "1999", "Start_M": "4", "END": "19990930", "NAME": "Candlestick Park", "LEAGUE": "NL", "Start_D": "12", "Longitude": "-122.38627", "START": "19600412", "STATE": "CA", "End_M": "9", "Start_Y": "1960", "Latitude": "37.713297", "AKA": "3Com Park; 3Com Park at Candlestick Point; The Stick", "Exact": "Y", "NOTES": "", "Altitude": "135", "End_D": "30"}, "WHE01": {"CITY": "Wheeling", "End_Y": "1890", "Start_M": "9", "END": "18900922", "NAME": "Island Grounds", "LEAGUE": "NL", "Start_D": "22", "Longitude": "-80.733735", "START": "18900922", "STATE": "WV", "End_M": "9", "Start_Y": "1890", "Latitude": "40.063386", "AKA": "Wheeling Grounds", "Exact": "Y", "NOTES": "PIT", "Altitude": "649", "End_D": "22"}, "SYR01": {"CITY": "Syracuse", "End_Y": "1879", "Start_M": "5", "END": "18790910", "NAME": "Star Park I", "LEAGUE": "NL", "Start_D": "28", "Longitude": "-76.148711", "START": "18790528", "STATE": "NY", "End_M": "9", "Start_Y": "1879", "Latitude": "43.034993", "AKA": "Newell Park", "Exact": "Y", "NOTES": "", "Altitude": "392", "End_D": "10"}, "DAY01": {"CITY": "Dayton", "End_Y": "1902", "Start_M": "6", "END": "19020608", "NAME": "Fairview Park", "LEAGUE": "AL", "Start_D": "8", "Longitude": "-84.213033", "START": "19020608", "STATE": "OH", "End_M": "6", "Start_Y": "1902", "Latitude": "39.786302", "AKA": "", "Exact": "Y", "NOTES": "CLE", "Altitude": "824", "End_D": "8"}, "TOR01": {"CITY": "Toronto", "End_Y": "1989", "Start_M": "4", "END": "19890528", "NAME": "Exhibition Stadium", "LEAGUE": "AL", "Start_D": "7", "Longitude": "-79.417679", "START": "19770407", "STATE": "ONT", "End_M": "5", "Start_Y": "1977", "Latitude": "43.632568", "AKA": "Prohibition Stadium; Canadian National Exhibition Stadium", "Exact": "Y", "NOTES": "first game: snow covering outfield", "Altitude": "273", "End_D": "28"}, "WIL01": {"CITY": "Wilmington", "End_Y": "1884", "Start_M": "9", "END": "18840910", "NAME": "Union Street Park", "LEAGUE": "UA", "Start_D": "2", "Longitude": "-75.574942", "START": "18840902", "STATE": "DE", "End_M": "9", "Start_Y": "1884", "Latitude": "39.747745", "AKA": "Union Street Ball Grounds; Union Park; Wilmington Grounds; Quickstep Park", "Exact": "Y", "NOTES": "9/15 forfeit", "Altitude": "150", "End_D": "10"}, "STL04": {"CITY": "St. Louis", "End_Y": "1886", "Start_M": "4", "END": "18860923", "NAME": "Palace Park of America", "LEAGUE": "", "Start_D": "20", "Longitude": "-90.212177", "START": "18840420", "STATE": "MO", "End_M": "9", "Start_Y": "1884", "Latitude": "38.646394", "AKA": "Union Grounds", "Exact": "Y", "NOTES": "SLU:1884; SL5:1885-86", "Altitude": "507", "End_D": "23"}, "CHI06": {"CITY": "Chicago", "End_Y": "1891", "Start_M": "6", "END": "18911002", "NAME": "West Side Park", "LEAGUE": "NL", "Start_D": "6", "Longitude": "-87.660903", "START": "18850606", "STATE": "IL", "End_M": "10", "Start_Y": "1885", "Latitude": "41.874902", "AKA": "Congress Street Grounds; Loomis Race Track; Loomis Street Park", "Exact": "Y", "NOTES": "CHN:1891(M/W/F)", "Altitude": "588", "End_D": "2"}, "WAS08": {"CITY": "Washington", "End_Y": "1910", "Start_M": "4", "END": "19101006", "NAME": "American League Park II", "LEAGUE": "AL", "Start_D": "14", "Longitude": "-77.020191", "START": "19040414", "STATE": "DC", "End_M": "10", "Start_Y": "1904", "Latitude": "38.917576", "AKA": "National Park", "Exact": "Y", "NOTES": "", "Altitude": "100", "End_D": "6"}, "CHI10": {"CITY": "Chicago", "End_Y": "1990", "Start_M": "7", "END": "19900930", "NAME": "Comiskey Park I", "LEAGUE": "AL", "Start_D": "1", "Longitude": "-87.634025", "START": "19100701", "STATE": "IL", "End_M": "9", "Start_Y": "1910", "Latitude": "41.83201", "AKA": "White Sox Park", "Exact": "Y", "NOTES": "", "Altitude": "594", "End_D": "30"}, "CHI11": {"CITY": "Chicago", "End_Y": "", "Start_M": "4", "END": "", "NAME": "Wrigley Field", "LEAGUE": "NL", "Start_D": "23", "Longitude": "-87.655397", "START": "19140423", "STATE": "IL", "End_M": "", "Start_Y": "1914", "Latitude": "41.948314", "AKA": "Weeghman Park; Cubs Park; Whales Park; North Side Ball Park", "Exact": "Y", "NOTES": "CHF:1914-15; CHN:1916-date", "Altitude": "599", "End_D": ""}, "CHI12": {"CITY": "Chicago", "End_Y": "", "Start_M": "4", "END": "", "NAME": "U.S. Cellular Field", "LEAGUE": "AL", "Start_D": "18", "Longitude": "-87.633703", "START": "19910418", "STATE": "IL", "End_M": "", "Start_Y": "1991", "Latitude": "41.829892", "AKA": "Comiskey Park", "Exact": "Y", "NOTES": "", "Altitude": "594", "End_D": ""}, "JER01": {"CITY": "Jersey City", "End_Y": "1889", "Start_M": "4", "END": "18890425", "NAME": "Oakland Park", "LEAGUE": "NL", "Start_D": "24", "Longitude": "-74.053949", "START": "18890424", "STATE": "NJ", "End_M": "4", "Start_Y": "1889", "Latitude": "40.733589", "AKA": "Oakland Athletic Association Field", "Exact": "Y", "NOTES": "NY1: 2 games", "Altitude": "94", "End_D": "25"}, "BAL04": {"CITY": "Baltimore", "End_Y": "1884", "Start_M": "4", "END": "18840924", "NAME": "Belair Lot", "LEAGUE": "UA", "Start_D": "17", "Longitude": "-76.604953", "START": "18840417", "STATE": "MD", "End_M": "9", "Start_Y": "1884", "Latitude": "39.294656", "AKA": "Union Park", "Exact": "Y", "NOTES": "BLU:not 8/25", "Altitude": "25", "End_D": "24"}, "BAL05": {"CITY": "Baltimore", "End_Y": "1884", "Start_M": "8", "END": "18840825", "NAME": "Monumental Park", "LEAGUE": "UA", "Start_D": "25", "Longitude": "-76.612154", "START": "18840825", "STATE": "MD", "End_M": "8", "Start_Y": "1884", "Latitude": "39.29044", "AKA": "", "Exact": "N", "NOTES": "BLU", "Altitude": "32", "End_D": "25"}, "BAL06": {"CITY": "Baltimore", "End_Y": "1891", "Start_M": "4", "END": "18910509", "NAME": "Oriole Park II", "LEAGUE": "AA", "Start_D": "18", "Longitude": "-76.610017", "START": "18890418", "STATE": "MD", "End_M": "5", "Start_Y": "1889", "Latitude": "39.322914", "AKA": "", "Exact": "Y", "NOTES": "", "Altitude": "194", "End_D": "9"}, "BAL07": {"CITY": "Baltimore", "End_Y": "1899", "Start_M": "5", "END": "18991010", "NAME": "Oriole Park III", "LEAGUE": "", "Start_D": "11", "Longitude": "-76.612034", "START": "18910511", "STATE": "MD", "End_M": "10", "Start_Y": "1891", "Latitude": "39.317361", "AKA": "Union Park; Baltimore Baseball and Exhibition Grounds", "Exact": "Y", "NOTES": "BL3:1891; BLN:1892-99", "Altitude": "153", "End_D": "10"}, "STL02": {"CITY": "St. Louis", "End_Y": "1878", "Start_M": "5", "END": "18780713", "NAME": "Grand Avenue Park", "LEAGUE": "", "Start_D": "6", "Longitude": "-90.220619", "START": "18750506", "STATE": "MO", "End_M": "7", "Start_Y": "1875", "Latitude": "38.657795", "AKA": "Sportsman's Park; Grand Avenue Grounds", "Exact": "Y", "NOTES": "SL2:1875; SL3:1876-1877", "Altitude": "492", "End_D": "13"}, "BOS08": {"CITY": "Boston", "End_Y": "1952", "Start_M": "8", "END": "19520921", "NAME": "Braves Field", "LEAGUE": "", "Start_D": "18", "Longitude": "-71.119465", "START": "19150818", "STATE": "MA", "End_M": "9", "Start_Y": "1915", "Latitude": "42.353233", "AKA": "Bee Hive; National League Field", "Exact": "Y", "NOTES": "", "Altitude": "26", "End_D": "21"}, "BAL02": {"CITY": "Baltimore", "End_Y": "1882", "Start_M": "4", "END": "18820930", "NAME": "Newington Park", "LEAGUE": "", "Start_D": "22", "Longitude": "-76.640809", "START": "18720422", "STATE": "MD", "End_M": "9", "Start_Y": "1872", "Latitude": "39.307192", "AKA": "", "Exact": "Y", "NOTES": "BL1:1872-74; BL4:1873; BL2: 1882", "Altitude": "195", "End_D": "30"}, "BAL03": {"CITY": "Baltimore", "End_Y": "1888", "Start_M": "5", "END": "18881013", "NAME": "Oriole Park I", "LEAGUE": "AA", "Start_D": "1", "Longitude": "-76.610897", "START": "18830501", "STATE": "MD", "End_M": "10", "Start_Y": "1883", "Latitude": "39.317701", "AKA": "Union Park; Huntingdon Avenue Grounds ; American Association Park", "Exact": "Y", "NOTES": "", "Altitude": "164", "End_D": "13"}, "BOS05": {"CITY": "Boston", "End_Y": "1914", "Start_M": "7", "END": "19140811", "NAME": "South End Grounds III", "LEAGUE": "NL", "Start_D": "20", "Longitude": "-71.087692", "START": "18940720", "STATE": "MA", "End_M": "8", "Start_Y": "1894", "Latitude": "42.336859", "AKA": "South Side Grounds", "Exact": "Y", "NOTES": "", "Altitude": "11", "End_D": "11"}, "BOS04": {"CITY": "Boston", "End_Y": "1894", "Start_M": "4", "END": "18940620", "NAME": "Congress Street Grounds", "LEAGUE": "", "Start_D": "19", "Longitude": "-71.047297", "START": "18900419", "STATE": "MA", "End_M": "6", "Start_Y": "1890", "Latitude": "42.350129", "AKA": "Brotherhood Grounds", "Exact": "Y", "NOTES": "BSP:1890; BS2:1891; BSN:5/16 to 6/20/1894", "Altitude": "9", "End_D": "20"}, "BOS07": {"CITY": "Boston", "End_Y": "", "Start_M": "4", "END": "", "NAME": "Fenway Park", "LEAGUE": "AL", "Start_D": "20", "Longitude": "-71.097337", "START": "19120420", "STATE": "MA", "End_M": "", "Start_Y": "1912", "Latitude": "42.346561", "AKA": "", "Exact": "Y", "NOTES": "BOS:1912-date; BSN:9/7 to 9/29/1914; 4/14 to 7/26/15", "Altitude": "16", "End_D": ""}, "BOS06": {"CITY": "Boston", "End_Y": "1911", "Start_M": "5", "END": "19111007", "NAME": "Huntington Avenue Baseball Grounds", "LEAGUE": "AL", "Start_D": "8", "Longitude": "-71.08913", "START": "19010508", "STATE": "MA", "End_M": "10", "Start_Y": "1901", "Latitude": "42.339199", "AKA": "", "Exact": "Y", "NOTES": "", "Altitude": "8", "End_D": "7"}, "BOS01": {"CITY": "Boston", "End_Y": "1887", "Start_M": "5", "END": "18870910", "NAME": "South End Grounds I", "LEAGUE": "", "Start_D": "16", "Longitude": "-71.087769", "START": "18710516", "STATE": "MA", "End_M": "9", "Start_Y": "1871", "Latitude": "42.336836", "AKA": "Walpole Street Grounds", "Exact": "Y", "NOTES": "BS1:1871-75; HR1: 8/12/1874; BSN:1876-1887", "Altitude": "11", "End_D": "10"}, "BAL09": {"CITY": "Baltimore", "End_Y": "1902", "Start_M": "4", "END": "19020929", "NAME": "Oriole Park IV", "LEAGUE": "AL", "Start_D": "26", "Longitude": "-76.609953", "START": "19010426", "STATE": "MD", "End_M": "9", "Start_Y": "1901", "Latitude": "39.323868", "AKA": "American League Park", "Exact": "Y", "NOTES": "", "Altitude": "202", "End_D": "29"}, "BOS03": {"CITY": "Boston", "End_Y": "1894", "Start_M": "5", "END": "18940514", "NAME": "South End Grounds II", "LEAGUE": "NL", "Start_D": "25", "Longitude": "-71.087769", "START": "18880525", "STATE": "MA", "End_M": "5", "Start_Y": "1888", "Latitude": "42.336836", "AKA": "Grand Pavilion; Walpole Street Grounds; Union Baseball Grounds; Boston Baseball Grounds", "Exact": "Y", "NOTES": "", "Altitude": "11", "End_D": "14"}, "BOS02": {"CITY": "Boston", "End_Y": "1884", "Start_M": "4", "END": "18840924", "NAME": "Dartmouth Grounds", "LEAGUE": "UA", "Start_D": "30", "Longitude": "-71.100641", "START": "18840430", "STATE": "MA", "End_M": "9", "Start_Y": "1884", "Latitude": "42.316513", "AKA": "Union Park", "Exact": "Y", "NOTES": "BSU", "Altitude": "66", "End_D": "24"}, "PRO01": {"CITY": "Providence", "End_Y": "1875", "Start_M": "6", "END": "18750622", "NAME": "Adelaide Avenue Grounds", "LEAGUE": "NA", "Start_D": "12", "Longitude": "-71.416372", "START": "18750612", "STATE": "RI", "End_M": "6", "Start_Y": "1875", "Latitude": "41.796629", "AKA": "Providence Base Ball Grounds; Adelaide Park", "Exact": "Y", "NOTES": "NH1: 6/12/1875; BS1: 6/22/1875", "Altitude": "61", "End_D": "22"}, "PRO02": {"CITY": "Providence", "End_Y": "1885", "Start_M": "5", "END": "18850909", "NAME": "Messer Street Grounds", "LEAGUE": "NL", "Start_D": "1", "Longitude": "-71.436952", "START": "18780501", "STATE": "RI", "End_M": "9", "Start_Y": "1878", "Latitude": "41.813501", "AKA": "Messer Park", "Exact": "Y", "NOTES": "", "Altitude": "83", "End_D": "9"}, "PHI01": {"CITY": "Philadelphia", "End_Y": "1890", "Start_M": "6", "END": "18901011", "NAME": "Jefferson Street Grounds", "LEAGUE": "", "Start_D": "3", "Longitude": "-75.178031", "START": "18710603", "STATE": "PA", "End_M": "10", "Start_Y": "1871", "Latitude": "39.977635", "AKA": "Athletics Park; Athletic Base Ball Grounds", "Exact": "Y", "NOTES": "PH1:1871-75; PH2:1873-75; PHN:1876; PH4:1883-1890", "Altitude": "104", "End_D": "11"}, "JER02": {"CITY": "Jersey City", "End_Y": "1957", "Start_M": "4", "END": "19570903", "NAME": "Roosevelt Stadium", "LEAGUE": "NL", "Start_D": "19", "Longitude": "-74.103881", "START": "19560419", "STATE": "NJ", "End_M": "9", "Start_Y": "1956", "Latitude": "40.706251", "AKA": "", "Exact": "Y", "NOTES": "BRO: 7 gms (1956) & 8 gms (1957)", "Altitude": "10", "End_D": "3"}, "SEA02": {"CITY": "Seattle", "End_Y": "1999", "Start_M": "4", "END": "19990627", "NAME": "Kingdome", "LEAGUE": "AL", "Start_D": "6", "Longitude": "-122.331639", "START": "19770406", "STATE": "WA", "End_M": "6", "Start_Y": "1977", "Latitude": "47.595133", "AKA": "King County Stadium", "Exact": "Y", "NOTES": "", "Altitude": "17", "End_D": "27"}, "CLL01": {"CITY": "Collinwood", "End_Y": "1898", "Start_M": "6", "END": "18980619", "NAME": "Euclid Beach Park", "LEAGUE": "NL", "Start_D": "12", "Longitude": "-81.565971", "START": "18980612", "STATE": "OH", "End_M": "6", "Start_Y": "1898", "Latitude": "41.577927", "AKA": "", "Exact": "Y", "NOTES": "CL4:6/12&6/19/1898", "Altitude": "604", "End_D": "19"}, "PIT08": {"CITY": "Pittsburgh", "End_Y": "", "Start_M": "4", "END": "", "NAME": "PNC Park", "LEAGUE": "NL", "Start_D": "9", "Longitude": "-80.005683", "START": "20010409", "STATE": "PA", "End_M": "", "Start_Y": "2001", "Latitude": "40.446835", "AKA": "", "Exact": "Y", "NOTES": "", "Altitude": "724", "End_D": ""}, "STL07": {"CITY": "St. Louis", "End_Y": "1966", "Start_M": "4", "END": "19660508", "NAME": "Sportsman's Park III", "LEAGUE": "", "Start_D": "14", "Longitude": "-90.220344", "START": "19090414", "STATE": "MO", "End_M": "5", "Start_Y": "1909", "Latitude": "38.657718", "AKA": "Busch Stadium", "Exact": "Y", "NOTES": "SLA:1909-1953; SLN:7/1/1920 to 5/8/1966", "Altitude": "492", "End_D": "8"}, "HRT01": {"CITY": "Hartford", "End_Y": "1876", "Start_M": "5", "END": "18760916", "NAME": "Hartford Ball Club Grounds", "LEAGUE": "", "Start_D": "1", "Longitude": "-72.671043", "START": "18740501", "STATE": "CT", "End_M": "9", "Start_Y": "1874", "Latitude": "41.758038", "AKA": "", "Exact": "Y", "NOTES": "HR1:1874-75; HAR:1876", "Altitude": "30", "End_D": "16"}, "WNY01": {"CITY": "West New York", "End_Y": "1899", "Start_M": "9", "END": "18990917", "NAME": "West New York Field Club Grounds", "LEAGUE": "NL", "Start_D": "11", "Longitude": "-74.019648", "START": "18980911", "STATE": "NJ", "End_M": "9", "Start_Y": "1898", "Latitude": "40.772796", "AKA": "Weehawken Cricket Grounds", "Exact": "N", "NOTES": "BRO:9/18 & 10/2/1898; NY1: 9/11/98; 6/4 & 7/16 & 8/13 & 9/17/99", "Altitude": "175", "End_D": "17"}, "IND01": {"CITY": "Indianapolis", "End_Y": "1878", "Start_M": "5", "END": "18780913", "NAME": "South Street Park", "LEAGUE": "NL", "Start_D": "1", "Longitude": "-86.153725", "START": "18780501", "STATE": "IN", "End_M": "9", "Start_Y": "1878", "Latitude": "39.762023", "AKA": "National League Park ; Athletic Park", "Exact": "Y", "NOTES": "", "Altitude": "714", "End_D": "13"}, "MIN01": {"CITY": "Minneapolis", "End_Y": "1891", "Start_M": "10", "END": "18911002", "NAME": "Athletic Park", "LEAGUE": "AA", "Start_D": "2", "Longitude": "-93.274809", "START": "18911002", "STATE": "MN", "End_M": "10", "Start_Y": "1891", "Latitude": "44.980392", "AKA": "", "Exact": "Y", "NOTES": "ML2", "Altitude": "849", "End_D": "2"}, "NYC19": {"CITY": "Brooklyn", "End_Y": "1915", "Start_M": "5", "END": "19150930", "NAME": "Washington Park IV", "LEAGUE": "FL", "Start_D": "11", "Longitude": "-73.985936", "START": "19140511", "STATE": "NY", "End_M": "9", "Start_Y": "1914", "Latitude": "40.67468", "AKA": "", "Exact": "Y", "NOTES": "", "Altitude": "26", "End_D": "30"}, "MIN03": {"CITY": "Minneapolis", "End_Y": "2009", "Start_M": "4", "END": "20091006", "NAME": "Hubert H. Humphrey Metrodome", "LEAGUE": "AL", "Start_D": "6", "Longitude": "-93.258287", "START": "19820406", "STATE": "MN", "End_M": "10", "Start_Y": "1982", "Latitude": "44.973926", "AKA": "The Metrodome", "Exact": "Y", "NOTES": "", "Altitude": "854", "End_D": "6"}, "MIN02": {"CITY": "Bloomington", "End_Y": "1981", "Start_M": "4", "END": "19810930", "NAME": "Metropolitan Stadium", "LEAGUE": "AL", "Start_D": "21", "Longitude": "-93.242921", "START": "19610421", "STATE": "MN", "End_M": "9", "Start_Y": "1961", "Latitude": "44.854783", "AKA": "", "Exact": "Y", "NOTES": "", "Altitude": "821", "End_D": "30"}, "MIA02": {"CITY": "Miami", "End_Y": "", "Start_M": "4", "END": "", "NAME": "Marlins Park", "LEAGUE": "NL", "Start_D": "4", "Longitude": "-80.219541", "START": "20120404", "STATE": "FL", "End_M": "", "Start_Y": "2012", "Latitude": "25.778165", "AKA": "", "Exact": "Y", "NOTES": "", "Altitude": "6", "End_D": ""}, "MIN04": {"CITY": "Minneapolis", "End_Y": "", "Start_M": "4", "END": "", "NAME": "Target Field", "LEAGUE": "AL", "Start_D": "12", "Longitude": "-93.278026", "START": "20100412", "STATE": "MN", "End_M": "", "Start_Y": "2010", "Latitude": "44.981749", "AKA": "", "Exact": "Y", "NOTES": "", "Altitude": "840", "End_D": ""}, "MIA01": {"CITY": "Miami", "End_Y": "2011", "Start_M": "4", "END": "20110928", "NAME": "Pro Player Stadium", "LEAGUE": "NL", "Start_D": "5", "Longitude": "-80.238831", "START": "19930405", "STATE": "FL", "End_M": "9", "Start_Y": "1993", "Latitude": "25.957877", "AKA": "Joe Robbie Stadium;  Dolphins Stadium; Sun Life Stadium; LandShark Stadium", "Exact": "Y", "NOTES": "", "Altitude": "5", "End_D": "28"}, "NYC10": {"CITY": "New York", "End_Y": "1911", "Start_M": "4", "END": "19110413", "NAME": "Polo Grounds IV", "LEAGUE": "", "Start_D": "19", "Longitude": "-73.936724", "START": "18900419", "STATE": "NY", "End_M": "4", "Start_Y": "1890", "Latitude": "40.831462", "AKA": "Brotherhood Park; New Polo Grounds", "Exact": "Y", "NOTES": "NYP:1890; NY1:1891-1911", "Altitude": "13", "End_D": "13"}, "NYC11": {"CITY": "Brooklyn", "End_Y": "1897", "Start_M": "4", "END": "18971002", "NAME": "Eastern Park", "LEAGUE": "", "Start_D": "28", "Longitude": "-73.902853", "START": "18900428", "STATE": "NY", "End_M": "10", "Start_Y": "1890", "Latitude": "40.669542", "AKA": "Brotherhood Park; Atlantic Park", "Exact": "Y", "NOTES": "BRP:1890; BRO:1891-97", "Altitude": "40", "End_D": "2"}, "NYC12": {"CITY": "Brooklyn", "End_Y": "1912", "Start_M": "4", "END": "19121005", "NAME": "Washington Park III", "LEAGUE": "", "Start_D": "30", "Longitude": "-73.986773", "START": "18980430", "STATE": "NY", "End_M": "10", "Start_Y": "1898", "Latitude": "40.675411", "AKA": "", "Exact": "Y", "NOTES": "BRO:1898-1912", "Altitude": "26", "End_D": "5"}, "NYC13": {"CITY": "New York", "End_Y": "1912", "Start_M": "4", "END": "19121005", "NAME": "Hilltop Park", "LEAGUE": "", "Start_D": "30", "Longitude": "-73.941788", "START": "19030430", "STATE": "NY", "End_M": "10", "Start_Y": "1903", "Latitude": "40.840334", "AKA": "Highlanders Park; American League Ballpark; The Hilltop", "Exact": "Y", "NOTES": "NYA:1903-1912; NY1: 4/15 to 5/30/1911", "Altitude": "164", "End_D": "5"}, "NYC14": {"CITY": "New York", "End_Y": "1963", "Start_M": "6", "END": "19630918", "NAME": "Polo Grounds V", "LEAGUE": "", "Start_D": "28", "Longitude": "-73.936896", "START": "19110628", "STATE": "NY", "End_M": "9", "Start_Y": "1911", "Latitude": "40.8316", "AKA": "Brush Stadium", "Exact": "Y", "NOTES": "NY1:1911-1957;NYA:1913-1922;NYN:1962-63", "Altitude": "13", "End_D": "18"}, "MAS01": {"CITY": "Maspeth", "End_Y": "1890", "Start_M": "7", "END": "18900803", "NAME": "Long Island Grounds", "LEAGUE": "AA", "Start_D": "27", "Longitude": "-73.914837", "START": "18900727", "STATE": "NY", "End_M": "8", "Start_Y": "1890", "Latitude": "40.719873", "AKA": "Maspeth Ball Grounds; Long Island Recreation Grounds", "Exact": "Y", "NOTES": "BR4: 2 games", "Altitude": "28", "End_D": "3"}, "NYC16": {"CITY": "New York", "End_Y": "2008", "Start_M": "4", "END": "20080921", "NAME": "Yankee Stadium I", "LEAGUE": "AL", "Start_D": "18", "Longitude": "-73.927749", "START": "19230418", "STATE": "NY", "End_M": "9", "Start_Y": "1923", "Latitude": "40.826959", "AKA": "", "Exact": "Y", "NOTES": "no games 1974-75", "Altitude": "18", "End_D": "21"}, "NYC17": {"CITY": "New York", "End_Y": "2008", "Start_M": "4", "END": "20080928", "NAME": "Shea Stadium", "LEAGUE": "NL", "Start_D": "17", "Longitude": "-73.847814", "START": "19640417", "STATE": "NY", "End_M": "9", "Start_Y": "1964", "Latitude": "40.755753", "AKA": "William A. Shea Stadium", "Exact": "Y", "NOTES": "NYN:1964-2008; NYA:1974-75", "Altitude": "13", "End_D": "28"}, "BUF02": {"CITY": "Buffalo", "End_Y": "1885", "Start_M": "5", "END": "18851007", "NAME": "Olympic Park I", "LEAGUE": "NL", "Start_D": "21", "Longitude": "-78.881282", "START": "18840521", "STATE": "NY", "End_M": "10", "Start_Y": "1884", "Latitude": "42.905634", "AKA": "Richmond Ave Grounds", "Exact": "Y", "NOTES": "", "Altitude": "632", "End_D": "7"}, "BUF03": {"CITY": "Buffalo", "End_Y": "1890", "Start_M": "4", "END": "18901004", "NAME": "Olympic Park II", "LEAGUE": "PL", "Start_D": "19", "Longitude": "-78.861669", "START": "18900419", "STATE": "NY", "End_M": "10", "Start_Y": "1890", "Latitude": "42.91453", "AKA": "Buffalo Baseball Park", "Exact": "Y", "NOTES": "", "Altitude": "630", "End_D": "4"}, "BUF01": {"CITY": "Buffalo", "End_Y": "1883", "Start_M": "5", "END": "18830908", "NAME": "Riverside Grounds", "LEAGUE": "NL", "Start_D": "1", "Longitude": "-78.892599", "START": "18790501", "STATE": "NY", "End_M": "9", "Start_Y": "1879", "Latitude": "42.906379", "AKA": "Riverside Park", "Exact": "Y", "NOTES": "", "Altitude": "631", "End_D": "8"}, "BUF04": {"CITY": "Buffalo", "End_Y": "1915", "Start_M": "5", "END": "19150908", "NAME": "International Fair Association Grounds", "LEAGUE": "FL", "Start_D": "11", "Longitude": "-78.851486", "START": "19140511", "STATE": "NY", "End_M": "9", "Start_Y": "1914", "Latitude": "42.918747", "AKA": "Federal League Park", "Exact": "Y", "NOTES": "", "Altitude": "630", "End_D": "8"}, "BAL12": {"CITY": "Baltimore", "End_Y": "", "Start_M": "4", "END": "", "NAME": "Oriole Park at Camden Yards", "LEAGUE": "AL", "Start_D": "6", "Longitude": "-76.621572", "START": "19920406", "STATE": "MD", "End_M": "", "Start_Y": "1992", "Latitude": "39.283944", "AKA": "Camden Yards", "Exact": "Y", "NOTES": "", "Altitude": "35", "End_D": ""}, "WAT01": {"CITY": "Watervliet", "End_Y": "1882", "Start_M": "5", "END": "18820826", "NAME": "Troy Ball Club Grounds", "LEAGUE": "NL", "Start_D": "20", "Longitude": "-73.70947", "START": "18820520", "STATE": "NY", "End_M": "8", "Start_Y": "1882", "Latitude": "42.732806", "AKA": "West Troy Grounds", "Exact": "Y", "NOTES": "TRN", "Altitude": "47", "End_D": "26"}, "DEN02": {"CITY": "Denver", "End_Y": "", "Start_M": "4", "END": "", "NAME": "Coors Field", "LEAGUE": "NL", "Start_D": "26", "Longitude": "-104.99413", "START": "19950426", "STATE": "CO", "End_M": "", "Start_Y": "1995", "Latitude": "39.756175", "AKA": "", "Exact": "Y", "NOTES": "", "Altitude": "5197", "End_D": ""}, "STL05": {"CITY": "St. Louis", "End_Y": "1920", "Start_M": "4", "END": "19200606", "NAME": "Robison Field", "LEAGUE": "NL", "Start_D": "27", "Longitude": "-90.222147", "START": "18930427", "STATE": "MO", "End_M": "6", "Start_Y": "1893", "Latitude": "38.662799", "AKA": "League Park; Cardinal Field; Vandeventer Lot", "Exact": "Y", "NOTES": "", "Altitude": "500", "End_D": "6"}, "LOS03": {"CITY": "Los Angeles", "End_Y": "", "Start_M": "4", "END": "", "NAME": "Dodger Stadium", "LEAGUE": "NL", "Start_D": "10", "Longitude": "-118.239951", "START": "19620410", "STATE": "CA", "End_M": "", "Start_Y": "1962", "Latitude": "34.073878", "AKA": "Chavez Ravine", "Exact": "Y", "NOTES": "LAN:1962-prsnt; LAA:1962-9/2/65; CAL:9/2to9/22/65", "Altitude": "501", "End_D": ""}, "ALT01": {"CITY": "Altoona", "End_Y": "1884", "Start_M": "4", "END": "18840531", "NAME": "Columbia Park", "LEAGUE": "UA", "Start_D": "30", "Longitude": "-78.411164", "START": "18840430", "STATE": "PA", "End_M": "5", "Start_Y": "1884", "Latitude": "40.494582", "AKA": "4th Ave Grounds; Waverly Field", "Exact": "Y", "NOTES": "", "Altitude": "1129", "End_D": "31"}, "LOS01": {"CITY": "Los Angeles", "End_Y": "1961", "Start_M": "4", "END": "19610920", "NAME": "Los Angeles Memorial Coliseum", "LEAGUE": "NL", "Start_D": "18", "Longitude": "-118.288009", "START": "19580418", "STATE": "CA", "End_M": "9", "Start_Y": "1958", "Latitude": "34.014019", "AKA": "Los Angeles Colisuem; Memorial Coliseum", "Exact": "Y", "NOTES": "", "Altitude": "139", "End_D": "20"}, "RIC02": {"CITY": "Richmond", "End_Y": "1884", "Start_M": "8", "END": "18841015", "NAME": "Allens Pasture", "LEAGUE": "AA", "Start_D": "5", "Longitude": "-77.458003", "START": "18840805", "STATE": "VA", "End_M": "10", "Start_Y": "1884", "Latitude": "37.553945", "AKA": "Virginia Base-Ball Park", "Exact": "Y", "NOTES": "", "Altitude": "205", "End_D": "15"}, "RIC01": {"CITY": "Richmond", "End_Y": "1875", "Start_M": "4", "END": "18750501", "NAME": "Richmond Fair Grounds", "LEAGUE": "NA", "Start_D": "29", "Longitude": "-77.450364", "START": "18750429", "STATE": "VA", "End_M": "5", "Start_Y": "1875", "Latitude": "37.546758", "AKA": "Virginia State Agricultural Society Fair Grounds", "Exact": "Y", "NOTES": "WS6: 2 games", "Altitude": "185", "End_D": "1"}, "ANA01": {"CITY": "Anaheim", "End_Y": "", "Start_M": "4", "END": "", "NAME": "Angel Stadium of Anaheim", "LEAGUE": "AL", "Start_D": "19", "Longitude": "-117.882685", "START": "19660419", "STATE": "CA", "End_M": "", "Start_Y": "1966", "Latitude": "33.80029", "AKA": "Anaheim Stadium; Edison Field", "Exact": "Y", "NOTES": "", "Altitude": "154", "End_D": ""}, "TRO01": {"CITY": "Troy", "End_Y": "1881", "Start_M": "5", "END": "18810930", "NAME": "Haymakers' Grounds", "LEAGUE": "", "Start_D": "9", "Longitude": "-73.681229", "START": "18710509", "STATE": "NY", "End_M": "9", "Start_Y": "1871", "Latitude": "42.759763", "AKA": "", "Exact": "Y", "NOTES": "TRO:1871-72; TRN: 1880-81", "Altitude": "32", "End_D": "30"}, "SEA01": {"CITY": "Seattle", "End_Y": "1969", "Start_M": "4", "END": "19691002", "NAME": "Sicks' Stadium", "LEAGUE": "AL", "Start_D": "11", "Longitude": "-122.297403", "START": "19690411", "STATE": "WA", "End_M": "10", "Start_Y": "1969", "Latitude": "47.579199", "AKA": "Sicks' Select Stadium; Sicks' Seattle Stadium; Seattle Stadium", "Exact": "Y", "NOTES": "", "Altitude": "61", "End_D": "2"}, "NYC08": {"CITY": "Brooklyn", "End_Y": "1890", "Start_M": "5", "END": "18901003", "NAME": "Washington Park II", "LEAGUE": "", "Start_D": "30", "Longitude": "-73.985006", "START": "18890530", "STATE": "NY", "End_M": "10", "Start_Y": "1889", "Latitude": "40.672685", "AKA": "", "Exact": "Y", "NOTES": "BR3:1889; BRO:1890", "Altitude": "30", "End_D": "3"}, "SEA03": {"CITY": "Seattle", "End_Y": "", "Start_M": "7", "END": "", "NAME": "Safeco Field", "LEAGUE": "AL", "Start_D": "15", "Longitude": "-122.332283", "START": "19990715", "STATE": "WA", "End_M": "", "Start_Y": "1999", "Latitude": "47.591443", "AKA": "", "Exact": "Y", "NOTES": "", "Altitude": "17", "End_D": ""}, "PEN01": {"CITY": "Cincinnati", "End_Y": "1891", "Start_M": "4", "END": "18910813", "NAME": "Pendleton Park", "LEAGUE": "AA", "Start_D": "25", "Longitude": "-84.447058", "START": "18910425", "STATE": "OH", "End_M": "8", "Start_Y": "1891", "Latitude": "39.117813", "AKA": "East End Park; East End Grounds: Cincinnati Gym Grounds", "Exact": "Y", "NOTES": "CN3", "Altitude": "476", "End_D": "13"}, "WOR02": {"CITY": "Worcester", "End_Y": "1887", "Start_M": "8", "END": "18870817", "NAME": "Agricultural County Fair Grounds II", "LEAGUE": "NL", "Start_D": "17", "Longitude": "-71.814226", "START": "18870817", "STATE": "MA", "End_M": "8", "Start_Y": "1887", "Latitude": "42.268844", "AKA": "Worcester Driving Park", "Exact": "Y", "NOTES": "1 BSN game", "Altitude": "496", "End_D": "17"}, "NYC21": {"CITY": "New York", "End_Y": "", "Start_M": "4", "END": "", "NAME": "Yankee Stadium II", "LEAGUE": "AL", "Start_D": "16", "Longitude": "-73.926413", "START": "20090416", "STATE": "NY", "End_M": "", "Start_Y": "2009", "Latitude": "40.829586", "AKA": "", "Exact": "Y", "NOTES": "", "Altitude": "11", "End_D": ""}, "WOR01": {"CITY": "Worcester", "End_Y": "1882", "Start_M": "5", "END": "18820929", "NAME": "Agricultural County Fair Grounds I", "LEAGUE": "NL", "Start_D": "1", "Longitude": "-71.814226", "START": "18800501", "STATE": "MA", "End_M": "9", "Start_Y": "1880", "Latitude": "42.268844", "AKA": "Worcester Driving Park", "Exact": "Y", "NOTES": "", "Altitude": "496", "End_D": "29"}, "FOR01": {"CITY": "Fort Wayne", "End_Y": "1871", "Start_M": "5", "END": "18710829", "NAME": "Grand Duchess", "LEAGUE": "NA", "Start_D": "4", "Longitude": "-85.15545", "START": "18710504", "STATE": "IN", "End_M": "8", "Start_Y": "1871", "Latitude": "41.079087", "AKA": "Kekionga Base Ball Grounds", "Exact": "Y", "NOTES": "First ML game", "Altitude": "759", "End_D": "29"}, "TRO02": {"CITY": "Troy", "End_Y": "1879", "Start_M": "5", "END": "18790920", "NAME": "Putnam Grounds", "LEAGUE": "NL", "Start_D": "28", "Longitude": "-73.676616", "START": "18790528", "STATE": "NY", "End_M": "9", "Start_Y": "1879", "Latitude": "42.733038", "AKA": "The Puts; Beman Park", "Exact": "Y", "NOTES": "TRN: 05/30/1882 (Gm 2)", "Altitude": "250", "End_D": "20"}, "FOR03": {"CITY": "Fort Wayne", "End_Y": "1902", "Start_M": "6", "END": "19020831", "NAME": "Jailhouse Flats", "LEAGUE": "AL", "Start_D": "22", "Longitude": "-85.139431", "START": "19020622", "STATE": "IN", "End_M": "8", "Start_Y": "1902", "Latitude": "41.084198", "AKA": "Swinney Park; Jail Flats", "Exact": "Y", "NOTES": "CLE:2 games", "Altitude": "756", "End_D": "31"}, "GRA01": {"CITY": "Grand Rapids", "End_Y": "1903", "Start_M": "5", "END": "19030524", "NAME": "Ramona Park", "LEAGUE": "AL", "Start_D": "24", "Longitude": "-85.613776", "START": "19030524", "STATE": "MI", "End_M": "5", "Start_Y": "1903", "Latitude": "42.951512", "AKA": "Ramona Athletic Park", "Exact": "Y", "NOTES": "DET", "Altitude": "751", "End_D": "24"}, "PHI10": {"CITY": "Philadelphia", "End_Y": "1908", "Start_M": "4", "END": "19081003", "NAME": "Columbia Park", "LEAGUE": "", "Start_D": "26", "Longitude": "-75.182923", "START": "19010426", "STATE": "PA", "End_M": "10", "Start_Y": "1901", "Latitude": "39.98117", "AKA": "", "Exact": "Y", "NOTES": "PHA; PHI:8/20 to 9/10/1903", "Altitude": "98", "End_D": "3"}, "STL03": {"CITY": "St. Louis", "End_Y": "1892", "Start_M": "5", "END": "18921013", "NAME": "Sportsman's Park I", "LEAGUE": "", "Start_D": "2", "Longitude": "-90.220619", "START": "18820502", "STATE": "MO", "End_M": "10", "Start_Y": "1882", "Latitude": "38.657795", "AKA": "Athletic Park", "Exact": "Y", "NOTES": "SL4:1882-1891; SLN:1892", "Altitude": "492", "End_D": "13"}, "TOK01": {"CITY": "Tokyo", "End_Y": "2012", "Start_M": "3", "END": "20120329", "NAME": "Tokyo Dome", "LEAGUE": "", "Start_D": "29", "Longitude": "139.751928", "START": "20000329", "STATE": "JAP", "End_M": "3", "Start_Y": "2000", "Latitude": "35.705526", "AKA": "Big Egg; Tokyo Kyujyo", "Exact": "Y", "NOTES": "NYN&CHN:2000;NYA&TBA:2004;BOS&OAK:2008", "Altitude": "57", "End_D": "29"}, "IRO01": {"CITY": "Irondequoit", "End_Y": "1890", "Start_M": "5", "END": "18900720", "NAME": "Windsor Beach Grounds", "LEAGUE": "AA", "Start_D": "11", "Longitude": "-77.591588", "START": "18900511", "STATE": "NY", "End_M": "7", "Start_Y": "1890", "Latitude": "43.249113", "AKA": "", "Exact": "Y", "NOTES": "RC2: Sundays", "Altitude": "277", "End_D": "20"}, "OAK01": {"CITY": "Oakland", "End_Y": "", "Start_M": "4", "END": "", "NAME": "Oakland-Alameda County Coliseum", "LEAGUE": "AL", "Start_D": "17", "Longitude": "-122.200451", "START": "19680417", "STATE": "CA", "End_M": "", "Start_Y": "1968", "Latitude": "37.751619", "AKA": "Network Associates Coliseum; McAfee Coliseum; UMAX Coliseum; Overstock.com Coliseum", "Exact": "Y", "NOTES": "", "Altitude": "0", "End_D": ""}, "HRT02": {"CITY": "Hartford", "End_Y": "1872", "Start_M": "6", "END": "18720809", "NAME": "Hartford Trotting Park", "LEAGUE": "NA", "Start_D": "21", "Longitude": "-72.698579", "START": "18720621", "STATE": "CT", "End_M": "8", "Start_Y": "1872", "Latitude": "41.782489", "AKA": "", "Exact": "Y", "NOTES": "MID: 6/21; 7/3; 8/9", "Altitude": "59", "End_D": "9"}, "SPA01": {"CITY": "St. Paul", "End_Y": "", "Start_M": "", "END": "", "NAME": "Ft. Street Grounds", "LEAGUE": "", "Start_D": "", "Longitude": "-93.122029", "START": "", "STATE": "MN", "End_M": "", "Start_Y": "", "Latitude": "44.93322", "AKA": "West Seventh Street Park", "Exact": "Y", "NOTES": "Never Played in Home Park", "Altitude": "791", "End_D": ""}, "IND06": {"CITY": "Indianapolis", "End_Y": "1890", "Start_M": "7", "END": "18900802", "NAME": "Indianapolis Park", "LEAGUE": "NL", "Start_D": "28", "Longitude": "-86.134361", "START": "18900728", "STATE": "IN", "End_M": "8", "Start_Y": "1890", "Latitude": "39.770404", "AKA": "", "Exact": "Y", "NOTES": "CL4", "Altitude": "742", "End_D": "2"}, "IND07": {"CITY": "Indianapolis", "End_Y": "1914", "Start_M": "4", "END": "19141008", "NAME": "Federal League Park", "LEAGUE": "FL", "Start_D": "23", "Longitude": "-86.171599", "START": "19140423", "STATE": "IN", "End_M": "10", "Start_Y": "1914", "Latitude": "39.759953", "AKA": "Greenlawn Park", "Exact": "Y", "NOTES": "", "Altitude": "697", "End_D": "8"}, "CIN09": {"CITY": "Cincinnati", "End_Y": "", "Start_M": "3", "END": "", "NAME": "Great American Ballpark", "LEAGUE": "NL", "Start_D": "31", "Longitude": "-84.506483", "START": "20030331", "STATE": "OH", "End_M": "", "Start_Y": "2003", "Latitude": "39.097213", "AKA": "", "Exact": "Y", "NOTES": "", "Altitude": "489", "End_D": ""}, "DOV01": {"CITY": "Dover", "End_Y": "1875", "Start_M": "6", "END": "18750624", "NAME": "Fairview Park Fair Grounds", "LEAGUE": "NA", "Start_D": "24", "Longitude": "-75.536243", "START": "18750624", "STATE": "DE", "End_M": "6", "Start_Y": "1875", "Latitude": "39.167903", "AKA": "Dover Grounds", "Exact": "Y", "NOTES": "PH1", "Altitude": "40", "End_D": "24"}, "IND02": {"CITY": "Indianapolis", "End_Y": "1885", "Start_M": "5", "END": "18850915", "NAME": "Seventh Street Park I", "LEAGUE": "AA", "Start_D": "14", "Longitude": "-86.162256", "START": "18840514", "STATE": "IN", "End_M": "9", "Start_Y": "1884", "Latitude": "39.789401", "AKA": "Athletic Park", "Exact": "Y", "NOTES": "", "Altitude": "715", "End_D": "15"}, "IND03": {"CITY": "Indianapolis", "End_Y": "1884", "Start_M": "5", "END": "18840921", "NAME": "Bruce Grounds", "LEAGUE": "AA", "Start_D": "18", "Longitude": "-86.143287", "START": "18840518", "STATE": "IN", "End_M": "9", "Start_Y": "1884", "Latitude": "39.797513", "AKA": "Fourth Street Grounds", "Exact": "Y", "NOTES": "Sundays", "Altitude": "725", "End_D": "21"}, "CLE09": {"CITY": "Cleveland", "End_Y": "1887", "Start_M": "8", "END": "18870821", "NAME": "Cedar Avenue Driving Park", "LEAGUE": "AA", "Start_D": "21", "Longitude": "-81.632946", "START": "18870821", "STATE": "OH", "End_M": "8", "Start_Y": "1887", "Latitude": "41.500586", "AKA": "", "Exact": "Y", "NOTES": "CL3: 1 game", "Altitude": "673", "End_D": "21"}, "CLE08": {"CITY": "Cleveland", "End_Y": "", "Start_M": "4", "END": "", "NAME": "Progressive Field", "LEAGUE": "AL", "Start_D": "4", "Longitude": "-81.685326", "START": "19940404", "STATE": "OH", "End_M": "", "Start_Y": "1994", "Latitude": "41.496005", "AKA": "Jacobs Field; The Jake", "Exact": "Y", "NOTES": "", "Altitude": "673", "End_D": ""}, "CLE07": {"CITY": "Cleveland", "End_Y": "1993", "Start_M": "7", "END": "19931003", "NAME": "Cleveland Stadium", "LEAGUE": "AL", "Start_D": "31", "Longitude": "-81.699404", "START": "19320731", "STATE": "OH", "End_M": "10", "Start_Y": "1932", "Latitude": "41.506091", "AKA": "Municipal Stadium; Lake Front Stadium", "Exact": "Y", "NOTES": "CLE:7/31/1932-9/24/1933; 1947-1993", "Altitude": "593", "End_D": "3"}, "CLE06": {"CITY": "Cleveland", "End_Y": "1946", "Start_M": "4", "END": "19460921", "NAME": "League Park IV", "LEAGUE": "AL", "Start_D": "21", "Longitude": "-81.643766", "START": "19100421", "STATE": "OH", "End_M": "9", "Start_Y": "1910", "Latitude": "41.511852", "AKA": "Dunn Field; Somers Park", "Exact": "Y", "NOTES": "CLE:1910-7/30/1932;1934-46", "Altitude": "644", "End_D": "21"}, "CLE05": {"CITY": "Cleveland", "End_Y": "1909", "Start_M": "5", "END": "19090906", "NAME": "League Park III", "LEAGUE": "", "Start_D": "1", "Longitude": "-81.643766", "START": "18910501", "STATE": "OH", "End_M": "9", "Start_Y": "1891", "Latitude": "41.511852", "AKA": "National League Park", "Exact": "Y", "NOTES": "CL4:1891-99; CLE:1901-09", "Altitude": "644", "End_D": "6"}, "CLE04": {"CITY": "Cleveland", "End_Y": "1890", "Start_M": "4", "END": "18901004", "NAME": "Brotherhood Park", "LEAGUE": "PL", "Start_D": "30", "Longitude": "-81.648909", "START": "18900430", "STATE": "OH", "End_M": "10", "Start_Y": "1890", "Latitude": "41.483916", "AKA": "Players League Park", "Exact": "Y", "NOTES": "", "Altitude": "651", "End_D": "4"}, "CLE03": {"CITY": "Cleveland", "End_Y": "1890", "Start_M": "5", "END": "18901004", "NAME": "National League Park II", "LEAGUE": "", "Start_D": "4", "Longitude": "-81.661583", "START": "18870504", "STATE": "OH", "End_M": "10", "Start_Y": "1887", "Latitude": "41.503823", "AKA": "American Association Park; Brookside Park; League Park", "Exact": "Y", "NOTES": "CL3:1887-88; CL4:1889-90", "Altitude": "660", "End_D": "4"}, "CLE02": {"CITY": "Cleveland", "End_Y": "1884", "Start_M": "5", "END": "18841011", "NAME": "National League Park I", "LEAGUE": "NL", "Start_D": "1", "Longitude": "-81.654278", "START": "18790501", "STATE": "OH", "End_M": "10", "Start_Y": "1879", "Latitude": "41.500804", "AKA": "Kennard Street Park; League Park", "Exact": "Y", "NOTES": "", "Altitude": "667", "End_D": "11"}, "CLE01": {"CITY": "Cleveland", "End_Y": "1872", "Start_M": "5", "END": "18720819", "NAME": "National Association Grounds", "LEAGUE": "NA", "Start_D": "11", "Longitude": "-81.649883", "START": "18710511", "STATE": "OH", "End_M": "8", "Start_Y": "1871", "Latitude": "41.484704", "AKA": "", "Exact": "Y", "NOTES": "", "Altitude": "674", "End_D": "19"}, "CIN04": {"CITY": "Cincinnati", "End_Y": "1893", "Start_M": "5", "END": "18930929", "NAME": "League Park I", "LEAGUE": "", "Start_D": "1", "Longitude": "-84.535505", "START": "18840501", "STATE": "OH", "End_M": "9", "Start_Y": "1884", "Latitude": "39.116854", "AKA": "Cincinnati Base Ball Grounds ; Western Avenue Grounds", "Exact": "Y", "NOTES": "CN2:1884-89; CIN:1890-93", "Altitude": "488", "End_D": "29"}, "GLO01": {"CITY": "Gloucester City", "End_Y": "1890", "Start_M": "8", "END": "18901012", "NAME": "Gloucester Point Grounds", "LEAGUE": "AA", "Start_D": "5", "Longitude": "-75.126027", "START": "18880805", "STATE": "NJ", "End_M": "10", "Start_Y": "1888", "Latitude": "39.889851", "AKA": "", "Exact": "Y", "NOTES": "Sundays; PH4 6/10/1888", "Altitude": "19", "End_D": "12"}, "PIT04": {"CITY": "Pittsburgh", "End_Y": "1890", "Start_M": "5", "END": "18900930", "NAME": "Recreation Park", "LEAGUE": "", "Start_D": "1", "Longitude": "-80.030175", "START": "18840501", "STATE": "PA", "End_M": "9", "Start_Y": "1884", "Latitude": "40.452295", "AKA": "Coliseum Bike Track; Union Park", "Exact": "Y", "NOTES": "PT1:1884-1886; PIT:1887-1890", "Altitude": "765", "End_D": "30"}, "MNT01": {"CITY": "Monterrey", "End_Y": "1999", "Start_M": "8", "END": "19990404", "NAME": "Estadio Monterrey", "LEAGUE": "NL", "Start_D": "16", "Longitude": "-100.315407", "START": "19960816", "STATE": "MX", "End_M": "4", "Start_Y": "1996", "Latitude": "25.718006", "AKA": "Estadio de Baseball Monterrey", "Exact": "Y", "NOTES": "SDN:8/16&8/17&8/18/1996; 4/4/1999", "Altitude": "1743", "End_D": "4"}, "SFO03": {"CITY": "San Francisco", "End_Y": "", "Start_M": "4", "END": "", "NAME": "AT&T Park", "LEAGUE": "NL", "Start_D": "11", "Longitude": "-122.389221", "START": "20000411", "STATE": "CA", "End_M": "", "Start_Y": "2000", "Latitude": "37.778324", "AKA": "Pac Bell Park; SBC Park", "Exact": "Y", "NOTES": "", "Altitude": "8", "End_D": ""}, "HAR01": {"CITY": "Harrison", "End_Y": "1915", "Start_M": "4", "END": "19151003", "NAME": "Harrison Field", "LEAGUE": "FL", "Start_D": "16", "Longitude": "-74.158838", "START": "19150416", "STATE": "NJ", "End_M": "10", "Start_Y": "1915", "Latitude": "40.739723", "AKA": "Federal League Park; Harrison Park; Peppers Park", "Exact": "Y", "NOTES": "NEW", "Altitude": "9", "End_D": "3"}, "SFO01": {"CITY": "San Francisco", "End_Y": "1959", "Start_M": "4", "END": "19590920", "NAME": "Seals Stadium", "LEAGUE": "NL", "Start_D": "15", "Longitude": "-122.409337", "START": "19580415", "STATE": "CA", "End_M": "9", "Start_Y": "1958", "Latitude": "37.766774", "AKA": "", "Exact": "Y", "NOTES": "", "Altitude": "61", "End_D": "20"}, "COL03": {"CITY": "Columbus", "End_Y": "1903", "Start_M": "8", "END": "19030517", "NAME": "Neil Park I", "LEAGUE": "AL", "Start_D": "3", "Longitude": "-82.990297", "START": "19020803", "STATE": "OH", "End_M": "5", "Start_Y": "1902", "Latitude": "39.972455", "AKA": "", "Exact": "Y", "NOTES": "CLE:2 games", "Altitude": "783", "End_D": "17"}, "COL02": {"CITY": "Columbus", "End_Y": "1891", "Start_M": "4", "END": "18910922", "NAME": "Recreation Park II", "LEAGUE": "AA", "Start_D": "28", "Longitude": "-82.98933", "START": "18890428", "STATE": "OH", "End_M": "9", "Start_Y": "1889", "Latitude": "39.945109", "AKA": "", "Exact": "Y", "NOTES": "", "Altitude": "758", "End_D": "22"}, "COL01": {"CITY": "Columbus", "End_Y": "1884", "Start_M": "5", "END": "18840922", "NAME": "Recreation Park I", "LEAGUE": "AA", "Start_D": "1", "Longitude": "-82.980276", "START": "18830501", "STATE": "OH", "End_M": "9", "Start_Y": "1883", "Latitude": "39.957374", "AKA": "", "Exact": "Y", "NOTES": "", "Altitude": "788", "End_D": "22"}, "COL04": {"CITY": "Columbus", "End_Y": "1905", "Start_M": "7", "END": "19050724", "NAME": "Neil Park II", "LEAGUE": "AL", "Start_D": "23", "Longitude": "-82.990297", "START": "19050723", "STATE": "OH", "End_M": "7", "Start_Y": "1905", "Latitude": "39.972455", "AKA": "", "Exact": "Y", "NOTES": "DET:2 games", "Altitude": "783", "End_D": "24"}, "PHI08": {"CITY": "Philadelphia", "End_Y": "1894", "Start_M": "8", "END": "18940817", "NAME": "University of Penn. Athletic Field", "LEAGUE": "NL", "Start_D": "11", "Longitude": "-75.199004", "START": "18940811", "STATE": "PA", "End_M": "8", "Start_Y": "1894", "Latitude": "39.950685", "AKA": "", "Exact": "Y", "NOTES": "PHI:8/11&8/14 to 8/17/1894", "Altitude": "77", "End_D": "17"}, "STL01": {"CITY": "St. Louis", "End_Y": "1875", "Start_M": "5", "END": "18750704", "NAME": "Red Stocking Base-Ball Park", "LEAGUE": "NA", "Start_D": "4", "Longitude": "-90.23415", "START": "18750504", "STATE": "MO", "End_M": "7", "Start_Y": "1875", "Latitude": "38.629315", "AKA": "Compton Avenue Base Ball Park", "Exact": "Y", "NOTES": "SL1", "Altitude": "462", "End_D": "4"}, "TOL03": {"CITY": "Toledo", "End_Y": "1890", "Start_M": "5", "END": "18901002", "NAME": "Speranza Park", "LEAGUE": "AA", "Start_D": "1", "Longitude": "-83.543978", "START": "18900501", "STATE": "OH", "End_M": "10", "Start_Y": "1890", "Latitude": "41.669628", "AKA": "", "Exact": "Y", "NOTES": "", "Altitude": "609", "End_D": "2"}, "TOL01": {"CITY": "Toledo", "End_Y": "1884", "Start_M": "5", "END": "18840924", "NAME": "League Park", "LEAGUE": "AA", "Start_D": "14", "Longitude": "-83.545536", "START": "18840514", "STATE": "OH", "End_M": "9", "Start_Y": "1884", "Latitude": "41.653696", "AKA": "", "Exact": "Y", "NOTES": "", "Altitude": "609", "End_D": "24"}, "PHI09": {"CITY": "Philadelphia", "End_Y": "1938", "Start_M": "5", "END": "19380630", "NAME": "Baker Bowl", "LEAGUE": "NL", "Start_D": "2", "Longitude": "-75.155638", "START": "18950502", "STATE": "PA", "End_M": "6", "Start_Y": "1895", "Latitude": "39.993268", "AKA": "Huntingdon Grounds; National League Park; Philadelphia Baseball Grounds", "Exact": "Y", "NOTES": "PHI:not 8/20 to 9/10/1903", "Altitude": "98", "End_D": "30"}, "LBV01": {"CITY": "Lake Buena Vista", "End_Y": "2008", "Start_M": "5", "END": "20080424", "NAME": "Champion Stadium", "LEAGUE": "AL", "Start_D": "15", "Longitude": "-81.555908", "START": "20070515", "STATE": "FL", "End_M": "4", "Start_Y": "2007", "Latitude": "28.336796", "AKA": "The Ballpark at Disney's Wide World; Disney Field; Cracker Jack Stadium", "Exact": "Y", "NOTES": "TBA 3 games in 2007", "Altitude": "98", "End_D": "24"}, "WAS03": {"CITY": "Washington", "End_Y": "1884", "Start_M": "4", "END": "18840925", "NAME": "Capitol Grounds", "LEAGUE": "UA", "Start_D": "18", "Longitude": "-77.006695", "START": "18840418", "STATE": "DC", "End_M": "9", "Start_Y": "1884", "Latitude": "38.892956", "AKA": "Union Association Park", "Exact": "Y", "NOTES": "", "Altitude": "74", "End_D": "25"}, "WOR03": {"CITY": "Worcester", "End_Y": "1874", "Start_M": "10", "END": "18741030", "NAME": "Worcester Driving Park Grounds", "LEAGUE": "NA", "Start_D": "30", "Longitude": "-71.812404", "START": "18741030", "STATE": "MA", "End_M": "10", "Start_Y": "1874", "Latitude": "42.268721", "AKA": "", "Exact": "Y", "NOTES": "1 BS1 game", "Altitude": "496", "End_D": "30"}, "WAS02": {"CITY": "Washington", "End_Y": "1872", "Start_M": "4", "END": "18720525", "NAME": "National Grounds", "LEAGUE": "NA", "Start_D": "20", "Longitude": "-77.036478", "START": "18720420", "STATE": "DC", "End_M": "5", "Start_Y": "1872", "Latitude": "38.91261", "AKA": "", "Exact": "Y", "NOTES": "WS4", "Altitude": "89", "End_D": "25"}, "PHI04": {"CITY": "Philadelphia", "End_Y": "1886", "Start_M": "5", "END": "18861009", "NAME": "Recreation Park", "LEAGUE": "NL", "Start_D": "1", "Longitude": "-75.174812", "START": "18830501", "STATE": "PA", "End_M": "10", "Start_Y": "1883", "Latitude": "39.981581", "AKA": "", "Exact": "Y", "NOTES": "", "Altitude": "104", "End_D": "9"}, "NYC04": {"CITY": "New York", "End_Y": "1883", "Start_M": "5", "END": "18830904", "NAME": "Polo Grounds II (Southwest Diamond)", "LEAGUE": "AA", "Start_D": "30", "Longitude": "-73.95151", "START": "18830530", "STATE": "NY", "End_M": "9", "Start_Y": "1883", "Latitude": "40.798303", "AKA": "Polo Field West; Metropolitan Field", "Exact": "Y", "NOTES": "", "Altitude": "21", "End_D": "4"}, "WAS01": {"CITY": "Washington", "End_Y": "1875", "Start_M": "5", "END": "18750608", "NAME": "Olympic Grounds", "LEAGUE": "NA", "Start_D": "5", "Longitude": "-77.037562", "START": "18710505", "STATE": "DC", "End_M": "6", "Start_Y": "1871", "Latitude": "38.914522", "AKA": "", "Exact": "Y", "NOTES": "WS3:1871-1872; WS5:1873; WS6:1875", "Altitude": "91", "End_D": "8"}, "WAS06": {"CITY": "Washington", "End_Y": "1899", "Start_M": "4", "END": "18991014", "NAME": "Boundary Field", "LEAGUE": "", "Start_D": "13", "Longitude": "-77.020191", "START": "18910413", "STATE": "DC", "End_M": "10", "Start_Y": "1891", "Latitude": "38.917576", "AKA": "National Park; Beyer's Seventh Street Park", "Exact": "Y", "NOTES": "WS9:1891; WSN: 1892-1899", "Altitude": "100", "End_D": "14"}, "ATL01": {"CITY": "Atlanta", "End_Y": "1996", "Start_M": "4", "END": "19960923", "NAME": "Atlanta-Fulton County Stadium", "LEAGUE": "NL", "Start_D": "12", "Longitude": "-84.389486", "START": "19660412", "STATE": "GA", "End_M": "9", "Start_Y": "1966", "Latitude": "33.739457", "AKA": "Atlanta Stadium", "Exact": "Y", "NOTES": "", "Altitude": "979", "End_D": "23"}, "ATL02": {"CITY": "Atlanta", "End_Y": "", "Start_M": "4", "END": "", "NAME": "Turner Field", "LEAGUE": "NL", "Start_D": "4", "Longitude": "-84.389464", "START": "19970404", "STATE": "GA", "End_M": "", "Start_Y": "1997", "Latitude": "33.735487", "AKA": "", "Exact": "Y", "NOTES": "", "Altitude": "939", "End_D": ""}, "PHI05": {"CITY": "Philadelphia", "End_Y": "1884", "Start_M": "4", "END": "18840807", "NAME": "Keystone Park", "LEAGUE": "UA", "Start_D": "17", "Longitude": "-75.169641", "START": "18840417", "STATE": "PA", "End_M": "8", "Start_Y": "1884", "Latitude": "39.927663", "AKA": "", "Exact": "Y", "NOTES": "", "Altitude": "26", "End_D": "7"}, "TOL02": {"CITY": "Toledo", "End_Y": "1884", "Start_M": "9", "END": "18840913", "NAME": "Tri-State Fair Grounds", "LEAGUE": "AA", "Start_D": "13", "Longitude": "-83.590833", "START": "18840913", "STATE": "OH", "End_M": "9", "Start_Y": "1884", "Latitude": "41.654033", "AKA": "", "Exact": "Y", "NOTES": "", "Altitude": "617", "End_D": "13"}, "WAS09": {"CITY": "Washington", "End_Y": "1961", "Start_M": "4", "END": "19610921", "NAME": "Griffith Stadium", "LEAGUE": "AL", "Start_D": "12", "Longitude": "-77.020191", "START": "19110412", "STATE": "DC", "End_M": "9", "Start_Y": "1911", "Latitude": "38.917576", "AKA": "National Park; Clark Griffith Park", "Exact": "Y", "NOTES": "WS1:1911-60; WS2:1961", "Altitude": "100", "End_D": "21"}, "WAR01": {"CITY": "Warwick", "End_Y": "1903", "Start_M": "9", "END": "19030906", "NAME": "Rocky Point Park", "LEAGUE": "NL", "Start_D": "6", "Longitude": "-71.364405", "START": "19030906", "STATE": "RI", "End_M": "9", "Start_Y": "1903", "Latitude": "41.690486", "AKA": "", "Exact": "Y", "NOTES": "BSN; outfield surrounded by ocean", "Altitude": "38", "End_D": "6"}, "PHI06": {"CITY": "Philadelphia", "End_Y": "1894", "Start_M": "4", "END": "18940804", "NAME": "Huntingdon Grounds I", "LEAGUE": "NL", "Start_D": "30", "Longitude": "-75.155638", "START": "18870430", "STATE": "PA", "End_M": "8", "Start_Y": "1887", "Latitude": "39.993268", "AKA": "Philadelphia Baseball Grounds; National League Park", "Exact": "Y", "NOTES": "no games 8/7 to 8/17/1894; fire 8/6/1894", "Altitude": "98", "End_D": "4"}, "WAS07": {"CITY": "Washington", "End_Y": "1903", "Start_M": "4", "END": "19030928", "NAME": "American League Park I", "LEAGUE": "AL", "Start_D": "29", "Longitude": "-76.986996", "START": "19010429", "STATE": "DC", "End_M": "9", "Start_Y": "1901", "Latitude": "38.901672", "AKA": "National Park", "Exact": "Y", "NOTES": "first PA announcer (1902)", "Altitude": "48", "End_D": "28"}, "MON02": {"CITY": "Montreal", "End_Y": "2004", "Start_M": "4", "END": "20040929", "NAME": "Stade Olympique", "LEAGUE": "NL", "Start_D": "15", "Longitude": "-73.551925", "START": "19770415", "STATE": "QUE", "End_M": "9", "Start_Y": "1977", "Latitude": "45.557969", "AKA": "Olympic Stadium", "Exact": "Y", "NOTES": "", "Altitude": "89", "End_D": "29"}, "MON01": {"CITY": "Montreal", "End_Y": "1976", "Start_M": "4", "END": "19760926", "NAME": "Parc Jarry", "LEAGUE": "NL", "Start_D": "14", "Longitude": "-73.627094", "START": "19690414", "STATE": "QUE", "End_M": "9", "Start_Y": "1969", "Latitude": "45.53291", "AKA": "Jarry Park", "Exact": "Y", "NOTES": "", "Altitude": "190", "End_D": "26"}, "PHI07": {"CITY": "Philadelphia", "End_Y": "1891", "Start_M": "4", "END": "18911005", "NAME": "Forepaugh Park", "LEAGUE": "", "Start_D": "30", "Longitude": "-75.154985", "START": "18900430", "STATE": "PA", "End_M": "10", "Start_Y": "1890", "Latitude": "39.988552", "AKA": "Brotherhood Park; Athletic Park", "Exact": "Y", "NOTES": "PHP:1890; PH4:1891", "Altitude": "77", "End_D": "5"}, "WAS04": {"CITY": "Washington", "End_Y": "1884", "Start_M": "5", "END": "18840802", "NAME": "Athletic Park", "LEAGUE": "AA", "Start_D": "1", "Longitude": "-77.024472", "START": "18840501", "STATE": "DC", "End_M": "8", "Start_Y": "1884", "Latitude": "38.914797", "AKA": "", "Exact": "Y", "NOTES": "", "Altitude": "85", "End_D": "2"}, "SJU01": {"CITY": "San Juan", "End_Y": "2010", "Start_M": "4", "END": "20100630", "NAME": "Estadio Hiram Bithorn", "LEAGUE": "NL", "Start_D": "1", "Longitude": "-66.072787", "START": "20010401", "STATE": "PR", "End_M": "6", "Start_Y": "2001", "Latitude": "18.416612", "AKA": "Hiram Bithorn Stadium", "Exact": "Y", "NOTES": "TOR: 4/1/2001; MON:4/11-20;6/3-8;9/5-11/2003", "Altitude": "10", "End_D": "30"}, "PHI14": {"CITY": "Philadelphia", "End_Y": "1894", "Start_M": "8", "END": "18940906", "NAME": "Huntingdon Grounds II", "LEAGUE": "NL", "Start_D": "18", "Longitude": "-75.155638", "START": "18940818", "STATE": "PA", "End_M": "9", "Start_Y": "1894", "Latitude": "39.993268", "AKA": "Philadelphia Baseball Grounds; National League Park", "Exact": "Y", "NOTES": "Temporary structure after fire on August 6", "Altitude": "98", "End_D": "6"}, "WAS05": {"CITY": "Washington", "End_Y": "1889", "Start_M": "4", "END": "18890921", "NAME": "Swampoodle Grounds", "LEAGUE": "NL", "Start_D": "29", "Longitude": "-77.007383", "START": "18860429", "STATE": "DC", "End_M": "9", "Start_Y": "1886", "Latitude": "38.898236", "AKA": "Capital Park Grounds", "Exact": "Y", "NOTES": "", "Altitude": "40", "End_D": "21"}, "NEW03": {"CITY": "Newburgh Township", "End_Y": "1888", "Start_M": "9", "END": "18880902", "NAME": "Beyerle's Park", "LEAGUE": "AA", "Start_D": "2", "Longitude": "-81.664424", "START": "18880902", "STATE": "OH", "End_M": "9", "Start_Y": "1888", "Latitude": "41.459711", "AKA": "Forest City Park; Tate Field", "Exact": "Y", "NOTES": "1 CLE game", "Altitude": "394", "End_D": "2"}, "NEW02": {"CITY": "New Haven", "End_Y": "1875", "Start_M": "4", "END": "18750421", "NAME": "Hamilton Park", "LEAGUE": "NA", "Start_D": "21", "Longitude": "-72.95404", "START": "18750421", "STATE": "CT", "End_M": "4", "Start_Y": "1875", "Latitude": "41.321348", "AKA": "Brewster Park", "Exact": "Y", "NOTES": "", "Altitude": "63", "End_D": "21"}, "NEW01": {"CITY": "New Haven", "End_Y": "1877", "Start_M": "4", "END": "18770922", "NAME": "Howard Avenue Grounds", "LEAGUE": "NA", "Start_D": "26", "Longitude": "-72.932295", "START": "18750426", "STATE": "CT", "End_M": "9", "Start_Y": "1875", "Latitude": "41.293714", "AKA": "", "Exact": "Y", "NOTES": "", "Altitude": "63", "End_D": "22"}, "NYC15": {"CITY": "Brooklyn", "End_Y": "1957", "Start_M": "4", "END": "19570924", "NAME": "Ebbets Field", "LEAGUE": "NL", "Start_D": "9", "Longitude": "-73.958374", "START": "19130409", "STATE": "NY", "End_M": "9", "Start_Y": "1913", "Latitude": "40.664768", "AKA": "", "Exact": "Y", "NOTES": "", "Altitude": "84", "End_D": "24"}, "MIL03": {"CITY": "Milwaukee", "End_Y": "1891", "Start_M": "9", "END": "18911004", "NAME": "Borchert Field", "LEAGUE": "AA", "Start_D": "10", "Longitude": "-87.920648", "START": "18910910", "STATE": "WI", "End_M": "10", "Start_Y": "1891", "Latitude": "43.07394", "AKA": "Athletic Park; Brewer Field; Athletic Field", "Exact": "Y", "NOTES": "", "Altitude": "681", "End_D": "4"}, "MIL02": {"CITY": "Milwaukee", "End_Y": "1885", "Start_M": "9", "END": "18850925", "NAME": "Wright Street Grounds", "LEAGUE": "", "Start_D": "27", "Longitude": "-87.926184", "START": "18840927", "STATE": "WI", "End_M": "9", "Start_Y": "1884", "Latitude": "43.064848", "AKA": "Milwaukee Baseball Park", "Exact": "Y", "NOTES": "UA:1884; BFN:9/4/1885; PRO: 9/25/1885", "Altitude": "687", "End_D": "25"}, "MIL01": {"CITY": "Milwaukee", "End_Y": "1878", "Start_M": "5", "END": "18780914", "NAME": "Milwaukee Base-Ball Grounds", "LEAGUE": "NL", "Start_D": "14", "Longitude": "-87.925583", "START": "18780514", "STATE": "WI", "End_M": "9", "Start_Y": "1878", "Latitude": "43.036451", "AKA": "", "Exact": "Y", "NOTES": "", "Altitude": "611", "End_D": "14"}, "SYR02": {"CITY": "Syracuse", "End_Y": "1890", "Start_M": "4", "END": "18901004", "NAME": "Star Park II", "LEAGUE": "AA", "Start_D": "28", "Longitude": "-76.151866", "START": "18900428", "STATE": "NY", "End_M": "10", "Start_Y": "1890", "Latitude": "43.039494", "AKA": "", "Exact": "Y", "NOTES": "", "Altitude": "395", "End_D": "4"}, "MIL06": {"CITY": "Milwaukee", "End_Y": "", "Start_M": "4", "END": "", "NAME": "Miller Park", "LEAGUE": "NL", "Start_D": "6", "Longitude": "-87.970966", "START": "20010406", "STATE": "WI", "End_M": "", "Start_Y": "2001", "Latitude": "43.028232", "AKA": "", "Exact": "Y", "NOTES": "", "Altitude": "602", "End_D": ""}, "MIL05": {"CITY": "Milwaukee", "End_Y": "2000", "Start_M": "4", "END": "20000928", "NAME": "County Stadium", "LEAGUE": "", "Start_D": "14", "Longitude": "-87.974365", "START": "19530414", "STATE": "WI", "End_M": "9", "Start_Y": "1953", "Latitude": "43.0299", "AKA": "", "Exact": "Y", "NOTES": "MLN:1953-65; CHA:9gms(1968)&11gms(1969);MIL:70-00", "Altitude": "606", "End_D": "28"}, "MIL04": {"CITY": "Milwaukee", "End_Y": "1901", "Start_M": "5", "END": "19010912", "NAME": "Lloyd Street Grounds", "LEAGUE": "AL", "Start_D": "3", "Longitude": "-87.933329", "START": "19010503", "STATE": "WI", "End_M": "9", "Start_Y": "1901", "Latitude": "43.059126", "AKA": "Milwaukee Baseball Park", "Exact": "Y", "NOTES": "", "Altitude": "677", "End_D": "12"}, "KAN03": {"CITY": "Kansas City", "End_Y": "1892", "Start_M": "9", "END": "18921015", "NAME": "Exposition Park", "LEAGUE": "AA", "Start_D": "30", "Longitude": "-94.551176", "START": "18880930", "STATE": "MO", "End_M": "10", "Start_Y": "1888", "Latitude": "39.088707", "AKA": "", "Exact": "Y", "NOTES": "", "Altitude": "890", "End_D": "15"}, "KAN02": {"CITY": "Kansas City", "End_Y": "1888", "Start_M": "4", "END": "18880929", "NAME": "Association Park", "LEAGUE": "", "Start_D": "30", "Longitude": "-94.564027", "START": "18860430", "STATE": "MO", "End_M": "9", "Start_Y": "1886", "Latitude": "39.108146", "AKA": "The Hole; League Park", "Exact": "Y", "NOTES": "KCN:1886; KC2:1888; SLN 1892 (3 games)", "Altitude": "907", "End_D": "29"}, "KAN01": {"CITY": "Kansas City", "End_Y": "1884", "Start_M": "6", "END": "18841019", "NAME": "Athletic Park", "LEAGUE": "UA", "Start_D": "7", "Longitude": "-94.593843", "START": "18840607", "STATE": "MO", "End_M": "10", "Start_Y": "1884", "Latitude": "39.084749", "AKA": "", "Exact": "Y", "NOTES": "", "Altitude": "777", "End_D": "19"}, "PHI03": {"CITY": "Philadelphia", "End_Y": "1882", "Start_M": "5", "END": "18820921", "NAME": "Oakdale Park", "LEAGUE": "AA", "Start_D": "2", "Longitude": "-75.149576", "START": "18820502", "STATE": "PA", "End_M": "9", "Start_Y": "1882", "Latitude": "39.991673", "AKA": "", "Exact": "Y", "NOTES": "PH4", "Altitude": "99", "End_D": "21"}, "KAN06": {"CITY": "Kansas City", "End_Y": "", "Start_M": "4", "END": "", "NAME": "Kauffman Stadium", "LEAGUE": "AL", "Start_D": "10", "Longitude": "-94.480149", "START": "19730410", "STATE": "MO", "End_M": "", "Start_Y": "1973", "Latitude": "39.051604", "AKA": "Royals Stadium", "Exact": "Y", "NOTES": "", "Altitude": "886", "End_D": ""}, "KAN05": {"CITY": "Kansas City", "End_Y": "1972", "Start_M": "4", "END": "19721004", "NAME": "Municipal Stadium", "LEAGUE": "AL", "Start_D": "12", "Longitude": "-94.557535", "START": "19550412", "STATE": "MO", "End_M": "10", "Start_Y": "1955", "Latitude": "39.086109", "AKA": "", "Exact": "Y", "NOTES": "KC1:1955-67; KCA:1969-1972", "Altitude": "916", "End_D": "4"}, "KAN04": {"CITY": "Kansas City", "End_Y": "1915", "Start_M": "4", "END": "19150928", "NAME": "Gordon and Koppel Field", "LEAGUE": "FL", "Start_D": "16", "Longitude": "-94.569587", "START": "19140416", "STATE": "MO", "End_M": "9", "Start_Y": "1914", "Latitude": "39.040575", "AKA": "Federal League Park", "Exact": "Y", "NOTES": "", "Altitude": "805", "End_D": "28"}, "DET02": {"CITY": "Detroit", "End_Y": "1911", "Start_M": "4", "END": "19110910", "NAME": "Bennett Park", "LEAGUE": "AL", "Start_D": "25", "Longitude": "-83.068732", "START": "19010425", "STATE": "MI", "End_M": "9", "Start_Y": "1901", "Latitude": "42.332541", "AKA": "Woodbridge Grove; The Haymarket", "Exact": "Y", "NOTES": "", "Altitude": "601", "End_D": "10"}, "DET03": {"CITY": "Detroit", "End_Y": "1902", "Start_M": "4", "END": "19020907", "NAME": "Burns Park", "LEAGUE": "AL", "Start_D": "28", "Longitude": "-83.127755", "START": "19010428", "STATE": "MI", "End_M": "9", "Start_Y": "1901", "Latitude": "42.318309", "AKA": "West End Park", "Exact": "Y", "NOTES": "Sundays only", "Altitude": "590", "End_D": "7"}, "DET01": {"CITY": "Detroit", "End_Y": "1890", "Start_M": "5", "END": "18900923", "NAME": "Recreation Park", "LEAGUE": "NL", "Start_D": "2", "Longitude": "-83.0564", "START": "18810502", "STATE": "MI", "End_M": "9", "Start_Y": "1881", "Latitude": "42.353487", "AKA": "", "Exact": "Y", "NOTES": "", "Altitude": "625", "End_D": "23"}, "SYR03": {"CITY": "Syracuse", "End_Y": "1890", "Start_M": "8", "END": "18900803", "NAME": "Iron Pier", "LEAGUE": "AA", "Start_D": "3", "Longitude": "-76.17549", "START": "18900803", "STATE": "NY", "End_M": "8", "Start_Y": "1890", "Latitude": "43.072139", "AKA": "", "Exact": "Y", "NOTES": "Forfeit by LS2 to SR2; no game ever played here", "Altitude": "395", "End_D": "3"}, "DET04": {"CITY": "Detroit", "End_Y": "1999", "Start_M": "4", "END": "19990927", "NAME": "Tiger Stadium", "LEAGUE": "AL", "Start_D": "20", "Longitude": "-83.068732", "START": "19120420", "STATE": "MI", "End_M": "9", "Start_Y": "1912", "Latitude": "42.332541", "AKA": "Navin Field; Briggs Stadium", "Exact": "Y", "NOTES": "", "Altitude": "601", "End_D": "27"}, "DET05": {"CITY": "Detroit", "End_Y": "", "Start_M": "4", "END": "", "NAME": "Comerica Park", "LEAGUE": "AL", "Start_D": "11", "Longitude": "-83.048627", "START": "20000411", "STATE": "MI", "End_M": "", "Start_Y": "2000", "Latitude": "42.339063", "AKA": "", "Exact": "Y", "NOTES": "", "Altitude": "602", "End_D": ""}, "RCK01": {"CITY": "Rockford", "End_Y": "1871", "Start_M": "5", "END": "18710803", "NAME": "Virginia State Agricultural Society Fair Grounds", "LEAGUE": "NA", "Start_D": "6", "Longitude": "-89.101335", "START": "18710506", "STATE": "IL", "End_M": "8", "Start_Y": "1871", "Latitude": "42.277663", "AKA": "Richmond Fair Grounds", "Exact": "Y", "NOTES": "", "Altitude": "714", "End_D": "3"}, "ROC01": {"CITY": "Rochester", "End_Y": "1890", "Start_M": "4", "END": "18901004", "NAME": "Culver Field I", "LEAGUE": "AA", "Start_D": "28", "Longitude": "-77.576033", "START": "18900428", "STATE": "NY", "End_M": "10", "Start_Y": "1890", "Latitude": "43.15464", "AKA": "", "Exact": "Y", "NOTES": "", "Altitude": "492", "End_D": "4"}, "ROC03": {"CITY": "Rochester", "End_Y": "1898", "Start_M": "8", "END": "18980828", "NAME": "Ontario Beach Grounds", "LEAGUE": "NL", "Start_D": "28", "Longitude": "-77.606814", "START": "18980828", "STATE": "NY", "End_M": "8", "Start_Y": "1898", "Latitude": "43.256802", "AKA": "", "Exact": "Y", "NOTES": "CL4", "Altitude": "268", "End_D": "28"}, "ROC02": {"CITY": "Rochester", "End_Y": "1898", "Start_M": "8", "END": "18980829", "NAME": "Culver Field II", "LEAGUE": "NL", "Start_D": "27", "Longitude": "-77.576033", "START": "18980827", "STATE": "NY", "End_M": "8", "Start_Y": "1898", "Latitude": "43.15464", "AKA": "", "Exact": "Y", "NOTES": "CL4: 2 games", "Altitude": "492", "End_D": "29"}, "TOL04": {"CITY": "Toledo", "End_Y": "1903", "Start_M": "6", "END": "19030816", "NAME": "Armory Park", "LEAGUE": "AL", "Start_D": "28", "Longitude": "-83.536221", "START": "19030628", "STATE": "OH", "End_M": "8", "Start_Y": "1903", "Latitude": "41.656331", "AKA": "Military Park", "Exact": "Y", "NOTES": "DET: 2 games", "Altitude": "597", "End_D": "16"}, "MID01": {"CITY": "Middletown", "End_Y": "1872", "Start_M": "5", "END": "18720727", "NAME": "Mansfield Club Grounds", "LEAGUE": "NA", "Start_D": "2", "Longitude": "-72.631223", "START": "18720502", "STATE": "CT", "End_M": "7", "Start_Y": "1872", "Latitude": "41.557225", "AKA": "", "Exact": "Y", "NOTES": "", "Altitude": "105", "End_D": "27"}, "KEO01": {"CITY": "Keokuk", "End_Y": "1875", "Start_M": "5", "END": "18750614", "NAME": "Perry Park", "LEAGUE": "NA", "Start_D": "4", "Longitude": "-91.388595", "START": "18750504", "STATE": "IA", "End_M": "6", "Start_Y": "1875", "Latitude": "40.413397", "AKA": "Walte's Pasture", "Exact": "Y", "NOTES": "", "Altitude": "641", "End_D": "14"}, "COV01": {"CITY": "Covington", "End_Y": "1875", "Start_M": "9", "END": "18750921", "NAME": "Star Baseball Park", "LEAGUE": "NA", "Start_D": "21", "Longitude": "-84.506108", "START": "18750921", "STATE": "KY", "End_M": "9", "Start_Y": "1875", "Latitude": "39.071337", "AKA": "Covington Base Ball Park; Star Grounds; Star Skating Rink and Base Ball Grounds", "Exact": "Y", "NOTES": "PH2", "Altitude": "509", "End_D": "21"}, "PHI13": {"CITY": "Philadelphia", "End_Y": "", "Start_M": "4", "END": "", "NAME": "Citizens Bank Park", "LEAGUE": "NL", "Start_D": "12", "Longitude": "-75.166485", "START": "20040412", "STATE": "PA", "End_M": "", "Start_Y": "2004", "Latitude": "39.906109", "AKA": "", "Exact": "Y", "NOTES": "", "Altitude": "19", "End_D": ""}, "LUD01": {"CITY": "Ludlow", "End_Y": "1875", "Start_M": "9", "END": "18750922", "NAME": "Ludlow Baseball Park", "LEAGUE": "NA", "Start_D": "22", "Longitude": "-84.524465", "START": "18750922", "STATE": "KY", "End_M": "9", "Start_Y": "1875", "Latitude": "39.088421", "AKA": "", "Exact": "N", "NOTES": "PH2", "Altitude": "599", "End_D": "22"}, "PHI12": {"CITY": "Philadelphia", "End_Y": "2003", "Start_M": "4", "END": "20030928", "NAME": "Veterans Stadium", "LEAGUE": "NL", "Start_D": "10", "Longitude": "-75.171495", "START": "19710410", "STATE": "PA", "End_M": "9", "Start_Y": "1971", "Latitude": "39.906537", "AKA": "", "Exact": "Y", "NOTES": "", "Altitude": "18", "End_D": "28"}, "LOU4": {"CITY": "Louisville", "End_Y": "1899", "Start_M": "8", "END": "18990902", "NAME": "Eclipse Park III", "LEAGUE": "NL", "Start_D": "22", "Longitude": "-85.799812", "START": "18990822", "STATE": "KY", "End_M": "9", "Start_Y": "1899", "Latitude": "38.245792", "AKA": "", "Exact": "Y", "NOTES": "Temporary structure after fire on August 12", "Altitude": "452", "End_D": "2"}, "PHI11": {"CITY": "Philadelphia", "End_Y": "1970", "Start_M": "4", "END": "19701001", "NAME": "Shibe Park", "LEAGUE": "", "Start_D": "12", "Longitude": "-75.164751", "START": "19090412", "STATE": "PA", "End_M": "10", "Start_Y": "1909", "Latitude": "39.996127", "AKA": "Connie Mack Stadium", "Exact": "Y", "NOTES": "PHA:1909-1954; PHI:5/16to5/28/1927;7/4/1938to1970", "Altitude": "116", "End_D": "1"}, "WAV01": {"CITY": "Waverly", "End_Y": "1873", "Start_M": "4", "END": "18730723", "NAME": "Waverly Fairgrounds", "LEAGUE": "NA", "Start_D": "28", "Longitude": "-74.19705", "START": "18730428", "STATE": "NJ", "End_M": "7", "Start_Y": "1873", "Latitude": "40.701664", "AKA": "Domestic Field; Waverly Park; Weequahic Park", "Exact": "Y", "NOTES": "ELI", "Altitude": "18", "End_D": "23"}, "LOU01": {"CITY": "Louisville", "End_Y": "1877", "Start_M": "4", "END": "18770929", "NAME": "Louisville Baseball Park", "LEAGUE": "NL", "Start_D": "25", "Longitude": "-85.763533", "START": "18760425", "STATE": "KY", "End_M": "9", "Start_Y": "1876", "Latitude": "38.227403", "AKA": "St. James Court", "Exact": "Y", "NOTES": "", "Altitude": "461", "End_D": "29"}, "LOU03": {"CITY": "Louisville", "End_Y": "1899", "Start_M": "5", "END": "18990802", "NAME": "Eclipse Park II", "LEAGUE": "NL", "Start_D": "22", "Longitude": "-85.799672", "START": "18930522", "STATE": "KY", "End_M": "8", "Start_Y": "1893", "Latitude": "38.247254", "AKA": "League Park", "Exact": "Y", "NOTES": "", "Altitude": "452", "End_D": "2"}, "LOU02": {"CITY": "Louisville", "End_Y": "1893", "Start_M": "5", "END": "18930504", "NAME": "Eclipse Park I", "LEAGUE": "", "Start_D": "5", "Longitude": "-85.79887", "START": "18820505", "STATE": "KY", "End_M": "5", "Start_Y": "1882", "Latitude": "38.251633", "AKA": "", "Exact": "Y", "NOTES": "LS2:1882-91; LS3:1892-93", "Altitude": "452", "End_D": "4"}, "BAL01": {"CITY": "Baltimore", "End_Y": "1871", "Start_M": "7", "END": "18710708", "NAME": "Madison Avenue Grounds", "LEAGUE": "NA", "Start_D": "8", "Longitude": "-76.632022", "START": "18710708", "STATE": "MD", "End_M": "7", "Start_Y": "1871", "Latitude": "39.309376", "AKA": "Pastime Base Ball Grounds", "Exact": "Y", "NOTES": "WS3", "Altitude": "167", "End_D": "8"}, "WAS11": {"CITY": "Washington", "End_Y": "2013", "Start_M": "3", "END": "20130922", "NAME": "Nationals Park", "LEAGUE": "NL", "Start_D": "30", "Longitude": "-77.007435", "START": "20080330", "STATE": "DC", "End_M": "9", "Start_Y": "2008", "Latitude": "38.872987", "AKA": "", "Exact": "Y", "NOTES": "", "Altitude": "23", "End_D": "22"}, "NYC09": {"CITY": "New York", "End_Y": "1890", "Start_M": "7", "END": "18900913", "NAME": "Polo Grounds III", "LEAGUE": "NL", "Start_D": "8", "Longitude": "-73.938505", "START": "18890708", "STATE": "NY", "End_M": "9", "Start_Y": "1889", "Latitude": "40.830228", "AKA": "Manhattan Field; New Polo Grounds", "Exact": "Y", "NOTES": "", "Altitude": "18", "End_D": "13"}, "WAS10": {"CITY": "Washington", "End_Y": "2007", "Start_M": "4", "END": "20070923", "NAME": "Robert F. Kennedy Stadium", "LEAGUE": "", "Start_D": "9", "Longitude": "-76.971837", "START": "19620409", "STATE": "DC", "End_M": "9", "Start_Y": "1962", "Latitude": "38.889766", "AKA": "D.C. Stadium; RFK Stadium", "Exact": "Y", "NOTES": "AL:1962-71; NL:2005-07", "Altitude": "24", "End_D": "23"}, "HON01": {"CITY": "Honolulu", "End_Y": "1997", "Start_M": "4", "END": "19970420", "NAME": "Aloha Stadium", "LEAGUE": "NL", "Start_D": "19", "Longitude": "-157.929927", "START": "19970419", "STATE": "HI", "End_M": "4", "Start_Y": "1997", "Latitude": "21.372695", "AKA": "", "Exact": "Y", "NOTES": "SDN:4/19&4/19&4/20/1997", "Altitude": "34", "End_D": "20"}, "IND04": {"CITY": "Indianapolis", "End_Y": "1887", "Start_M": "4", "END": "18871008", "NAME": "Seventh Street Park II", "LEAGUE": "NL", "Start_D": "28", "Longitude": "-86.162256", "START": "18870428", "STATE": "IN", "End_M": "10", "Start_Y": "1887", "Latitude": "39.789401", "AKA": "Athletic Park", "Exact": "Y", "NOTES": "", "Altitude": "715", "End_D": "8"}, "PHI02": {"CITY": "Philadelphia", "End_Y": "1875", "Start_M": "4", "END": "18750604", "NAME": "Centennial Park", "LEAGUE": "NA", "Start_D": "21", "Longitude": "-75.174812", "START": "18750421", "STATE": "PA", "End_M": "6", "Start_Y": "1875", "Latitude": "39.981581", "AKA": "Columbia Park", "Exact": "Y", "NOTES": "PH3", "Altitude": "104", "End_D": "4"}, "NYC07": {"CITY": "Queens", "End_Y": "1886", "Start_M": "5", "END": "18860919", "NAME": "Grauer's Ridgewood Park", "LEAGUE": "AA", "Start_D": "2", "Longitude": "-73.901514", "START": "18860502", "STATE": "NY", "End_M": "9", "Start_Y": "1886", "Latitude": "40.697792", "AKA": "Ridgewood Park I; Horse Market", "Exact": "Y", "NOTES": "BR3: Sundays (1886)", "Altitude": "75", "End_D": "19"}, "CIN08": {"CITY": "Cincinnati", "End_Y": "2002", "Start_M": "6", "END": "20020922", "NAME": "Riverfront Stadium", "LEAGUE": "NL", "Start_D": "30", "Longitude": "-84.509756", "START": "19700630", "STATE": "OH", "End_M": "9", "Start_Y": "1970", "Latitude": "39.096548", "AKA": "Cinergy Field", "Exact": "Y", "NOTES": "", "Altitude": "489", "End_D": "22"}, "STL06": {"CITY": "St. Louis", "End_Y": "1908", "Start_M": "4", "END": "19081006", "NAME": "Sportsman's Park II", "LEAGUE": "AL", "Start_D": "23", "Longitude": "-90.220619", "START": "19020423", "STATE": "MO", "End_M": "10", "Start_Y": "1902", "Latitude": "38.657795", "AKA": "", "Exact": "Y", "NOTES": "", "Altitude": "492", "End_D": "6"}, "NYC06": {"CITY": "New York", "End_Y": "1884", "Start_M": "5", "END": "18840823", "NAME": "Metropolitan Park", "LEAGUE": "AA", "Start_D": "13", "Longitude": "-73.938013", "START": "18840513", "STATE": "NY", "End_M": "8", "Start_Y": "1884", "Latitude": "40.790424", "AKA": "East River Ballpark", "Exact": "Y", "NOTES": "", "Altitude": "6", "End_D": "23"}, "THR01": {"CITY": "Three Rivers", "End_Y": "1890", "Start_M": "5", "END": "18900720", "NAME": "Three Rivers Park", "LEAGUE": "AA", "Start_D": "18", "Longitude": "-76.278024", "START": "18900518", "STATE": "NY", "End_M": "7", "Start_Y": "1890", "Latitude": "43.203262", "AKA": "", "Exact": "Y", "NOTES": "SR2: Sundays", "Altitude": "369", "End_D": "20"}, "PHO01": {"CITY": "Phoenix", "End_Y": "", "Start_M": "3", "END": "", "NAME": "Chase Field", "LEAGUE": "NL", "Start_D": "31", "Longitude": "-112.066793", "START": "19980331", "STATE": "AZ", "End_M": "", "Start_Y": "1998", "Latitude": "33.44542", "AKA": "Bank One Ballpark", "Exact": "Y", "NOTES": "", "Altitude": "1059", "End_D": ""}, "NYC05": {"CITY": "Brooklyn", "End_Y": "1889", "Start_M": "5", "END": "18890504", "NAME": "Washington Park I", "LEAGUE": "AA", "Start_D": "5", "Longitude": "-73.985006", "START": "18840505", "STATE": "NY", "End_M": "5", "Start_Y": "1884", "Latitude": "40.672685", "AKA": "", "Exact": "Y", "NOTES": "BR3", "Altitude": "30", "End_D": "4"}, "ELM01": {"CITY": "Elmira", "End_Y": "1885", "Start_M": "10", "END": "18851010", "NAME": "Maple Avenue Driving Park", "LEAGUE": "NL", "Start_D": "10", "Longitude": "-76.781308", "START": "18851010", "STATE": "NY", "End_M": "10", "Start_Y": "1885", "Latitude": "42.081115", "AKA": "Elmira Grounds", "Exact": "Y", "NOTES": "BFN", "Altitude": "852", "End_D": "10"}, "NYC20": {"CITY": "New York", "End_Y": "", "Start_M": "4", "END": "", "NAME": "Citi Field", "LEAGUE": "NL", "Start_D": "13", "Longitude": "-73.84584", "START": "20090413", "STATE": "NY", "End_M": "", "Start_Y": "2009", "Latitude": "40.757134", "AKA": "", "Exact": "Y", "NOTES": "", "Altitude": "13", "End_D": ""}, "ALB01": {"CITY": "Albany", "End_Y": "1882", "Start_M": "9", "END": "18820530", "NAME": "Riverside Park", "LEAGUE": "NL", "Start_D": "11", "Longitude": "-73.750997", "START": "18800911", "STATE": "NY", "End_M": "5", "Start_Y": "1880", "Latitude": "42.643132", "AKA": "Greenbush Grounds", "Exact": "Y", "NOTES": "TRN:9/11/80;6/15&9/10/1881;5/16-5/18&5/30/1882", "Altitude": "14", "End_D": "30"}, "HOU03": {"CITY": "Houston", "End_Y": "", "Start_M": "4", "END": "", "NAME": "Minute Maid Park", "LEAGUE": "NL", "Start_D": "7", "Longitude": "-95.355429", "START": "20000407", "STATE": "TX", "End_M": "", "Start_Y": "2000", "Latitude": "29.757041", "AKA": "Enron Field; Astros Field", "Exact": "Y", "NOTES": "", "Altitude": "20", "End_D": ""}, "WEE01": {"CITY": "Weehawken", "End_Y": "1887", "Start_M": "9", "END": "18870911", "NAME": "Monitor Grounds", "LEAGUE": "AA", "Start_D": "11", "Longitude": "-74.006989", "START": "18870911", "STATE": "NJ", "End_M": "9", "Start_Y": "1887", "Latitude": "40.786143", "AKA": "Monitor Park", "Exact": "Y", "NOTES": "NY4", "Altitude": "179", "End_D": "11"}, "NYC03": {"CITY": "New York", "End_Y": "1888", "Start_M": "5", "END": "18881013", "NAME": "Polo Grounds I (Southeast Diamond)", "LEAGUE": "", "Start_D": "1", "Longitude": "-73.949579", "START": "18830501", "STATE": "NY", "End_M": "10", "Start_Y": "1883", "Latitude": "40.797523", "AKA": "Polo Field East", "Exact": "Y", "NOTES": "NY1:1883-88; NY4:7/17/1884-1885", "Altitude": "20", "End_D": "13"}, "HOU02": {"CITY": "Houston", "End_Y": "1999", "Start_M": "4", "END": "19991003", "NAME": "Astrodome", "LEAGUE": "NL", "Start_D": "12", "Longitude": "-95.407775", "START": "19650412", "STATE": "TX", "End_M": "10", "Start_Y": "1965", "Latitude": "29.684812", "AKA": "Harris County Domed Stadium", "Exact": "Y", "NOTES": "", "Altitude": "52", "End_D": "3"}, "NYC02": {"CITY": "Brooklyn", "End_Y": "1872", "Start_M": "5", "END": "18721031", "NAME": "Capitoline Grounds", "LEAGUE": "NA", "Start_D": "6", "Longitude": "-73.948515", "START": "18720506", "STATE": "NY", "End_M": "10", "Start_Y": "1872", "Latitude": "40.683", "AKA": "Capitoline Skating Pond; Union and Capitoline Grounds; Capitoline; Capitoline Skating Lake and Base Ball Ground", "Exact": "Y", "NOTES": "BR2", "Altitude": "49", "End_D": "31"}, "ARL02": {"CITY": "Arlington", "End_Y": "", "Start_M": "4", "END": "", "NAME": "Globe Life Park", "LEAGUE": "AL", "Start_D": "11", "Longitude": "-97.082546", "START": "19940411", "STATE": "TX", "End_M": "", "Start_Y": "1994", "Latitude": "32.751164", "AKA": "Rangers Ballpark in Arlington; The Ballpark in Arlington; Ameriquest Field", "Exact": "Y", "NOTES": "", "Altitude": "549", "End_D": ""}, "CIN03": {"CITY": "Cincinnati", "End_Y": "1884", "Start_M": "5", "END": "18841015", "NAME": "Bank Street Grounds", "LEAGUE": "", "Start_D": "1", "Longitude": "-84.536923", "START": "18800501", "STATE": "OH", "End_M": "10", "Start_Y": "1880", "Latitude": "39.121126", "AKA": "Union Athletic Park", "Exact": "Y", "NOTES": "CN1:1880; CN2:1882-83; CNU:1884", "Altitude": "496", "End_D": "15"}, "ARL01": {"CITY": "Arlington", "End_Y": "1993", "Start_M": "4", "END": "19931003", "NAME": "Arlington Stadium", "LEAGUE": "AL", "Start_D": "21", "Longitude": "-97.084778", "START": "19720421", "STATE": "TX", "End_M": "10", "Start_Y": "1972", "Latitude": "32.755974", "AKA": "", "Exact": "Y", "NOTES": "", "Altitude": "552", "End_D": "3"}, "NYC01": {"CITY": "Brooklyn", "End_Y": "1878", "Start_M": "5", "END": "18780726", "NAME": "Union Grounds", "LEAGUE": "", "Start_D": "25", "Longitude": "-73.955027", "START": "18710525", "STATE": "NY", "End_M": "7", "Start_Y": "1871", "Latitude": "40.704264", "AKA": "Union Skating Rink; Union Skating Pond", "Exact": "Y", "NOTES": "NY2:1871-75;BR1:1872;BR2:1873-75;NY3:1876;HAR:1877", "Altitude": "38", "End_D": "26"}, "CIN02": {"CITY": "Cincinnati", "End_Y": "1879", "Start_M": "4", "END": "18790827", "NAME": "Avenue Grounds", "LEAGUE": "NL", "Start_D": "25", "Longitude": "-84.54647", "START": "18760425", "STATE": "OH", "End_M": "8", "Start_Y": "1876", "Latitude": "39.142878", "AKA": "", "Exact": "Y", "NOTES": "first Ladies Day (1876)", "Altitude": "480", "End_D": "27"}, "STL09": {"CITY": "St. Louis", "End_Y": "2005", "Start_M": "5", "END": "20051002", "NAME": "Busch Stadium II", "LEAGUE": "NL", "Start_D": "12", "Longitude": "-90.192326", "START": "19660512", "STATE": "MO", "End_M": "10", "Start_Y": "1966", "Latitude": "38.62393", "AKA": "Busch Memorial Stadium", "Exact": "Y", "NOTES": "", "Altitude": "460", "End_D": "2"}, "GEA01": {"CITY": "Geauga Lake", "End_Y": "1888", "Start_M": "7", "END": "18880826", "NAME": "Geauga Lake Grounds", "LEAGUE": "AA", "Start_D": "22", "Longitude": "-81.368067", "START": "18880722", "STATE": "OH", "End_M": "8", "Start_Y": "1888", "Latitude": "41.34955", "AKA": "", "Exact": "Y", "NOTES": "CL3:7/22&7/29&8/26", "Altitude": "1030", "End_D": "26"}, "LOS02": {"CITY": "Los Angeles", "End_Y": "1961", "Start_M": "4", "END": "19611001", "NAME": "Wrigley Field", "LEAGUE": "AL", "Start_D": "27", "Longitude": "-118.266236", "START": "19610427", "STATE": "CA", "End_M": "10", "Start_Y": "1961", "Latitude": "34.007316", "AKA": "", "Exact": "Y", "NOTES": "", "Altitude": "188", "End_D": "1"}, "CAN02": {"CITY": "Canton", "End_Y": "1890", "Start_M": "9", "END": "18900918", "NAME": "Pastime Park", "LEAGUE": "NL", "Start_D": "18", "Longitude": "-81.4234", "START": "18900918", "STATE": "OH", "End_M": "9", "Start_Y": "1890", "Latitude": "40.81132", "AKA": "", "Exact": "Y", "NOTES": "1 PIT game", "Altitude": "1058", "End_D": "18"}, "CAN01": {"CITY": "Canton", "End_Y": "1903", "Start_M": "6", "END": "19030621", "NAME": "Mahaffey Park", "LEAGUE": "", "Start_D": "15", "Longitude": "-81.412099", "START": "19020615", "STATE": "OH", "End_M": "6", "Start_Y": "1902", "Latitude": "40.815035", "AKA": "League Park", "Exact": "Y", "NOTES": "PIT 9/18/1890; CLE 6/15/02;5/10&6/21/03", "Altitude": "1058", "End_D": "21"}, "LAS01": {"CITY": "Las Vegas", "End_Y": "1996", "Start_M": "4", "END": "19960407", "NAME": "Cashman Field", "LEAGUE": "AL", "Start_D": "1", "Longitude": "-115.129708", "START": "19960401", "STATE": "NV", "End_M": "4", "Start_Y": "1996", "Latitude": "36.179914", "AKA": "", "Exact": "Y", "NOTES": "OAK: 6 games", "Altitude": "1907", "End_D": "7"}, "NWK01": {"CITY": "Newark", "End_Y": "1904", "Start_M": "7", "END": "19040717", "NAME": "Wiedenmeyer's Park", "LEAGUE": "AL", "Start_D": "17", "Longitude": "-74.1468", "START": "19040717", "STATE": "NJ", "End_M": "7", "Start_Y": "1904", "Latitude": "40.7195", "AKA": "", "Exact": "Y", "NOTES": "NYA", "Altitude": "13", "End_D": "17"}, "CIN07": {"CITY": "Cincinnati", "End_Y": "1970", "Start_M": "4", "END": "19700624", "NAME": "Crosley Field", "LEAGUE": "NL", "Start_D": "11", "Longitude": "-84.535505", "START": "19120411", "STATE": "OH", "End_M": "6", "Start_Y": "1912", "Latitude": "39.116854", "AKA": "Redland Field", "Exact": "Y", "NOTES": "", "Altitude": "488", "End_D": "24"}, "STL08": {"CITY": "St. Louis", "End_Y": "1915", "Start_M": "4", "END": "19151003", "NAME": "Handlan's Park", "LEAGUE": "FL", "Start_D": "16", "Longitude": "-90.23254", "START": "19140416", "STATE": "MO", "End_M": "10", "Start_Y": "1914", "Latitude": "38.633589", "AKA": "Federal League Park; Laclede Street Field; Grand and Market; Steininger Field", "Exact": "Y", "NOTES": "", "Altitude": "512", "End_D": "3"}, "SAI01": {"CITY": "New York", "End_Y": "1889", "Start_M": "4", "END": "18890614", "NAME": "St. George Cricket Grounds", "LEAGUE": "", "Start_D": "22", "Longitude": "-74.077862", "START": "18860422", "STATE": "NY", "End_M": "6", "Start_Y": "1886", "Latitude": "40.646663", "AKA": "Mutrie's Dump", "Exact": "Y", "NOTES": "NY4:1886-87; NY1:4/29 to 6/14/1889", "Altitude": "5", "End_D": "14"}, "CIN06": {"CITY": "Cincinnati", "End_Y": "1911", "Start_M": "4", "END": "19111012", "NAME": "Palace of the Fans", "LEAGUE": "NL", "Start_D": "17", "Longitude": "-84.53587", "START": "19020417", "STATE": "OH", "End_M": "10", "Start_Y": "1902", "Latitude": "39.116804", "AKA": "League Park", "Exact": "Y", "NOTES": "", "Altitude": "489", "End_D": "12"}, "SAN02": {"CITY": "San Diego", "End_Y": "", "Start_M": "4", "END": "", "NAME": "Petco Park", "LEAGUE": "NL", "Start_D": "8", "Longitude": "-117.157056", "START": "20040408", "STATE": "CA", "End_M": "", "Start_Y": "2004", "Latitude": "32.70753", "AKA": "", "Exact": "Y", "NOTES": "", "Altitude": "14", "End_D": ""}, "SAN01": {"CITY": "San Diego", "End_Y": "2003", "Start_M": "4", "END": "20030928", "NAME": "Jack Murphy Stadium", "LEAGUE": "NL", "Start_D": "8", "Longitude": "-117.119645", "START": "19690408", "STATE": "CA", "End_M": "9", "Start_Y": "1969", "Latitude": "32.783073", "AKA": "San Diego Stadium;  Qualcomm Stadium; San Diego-Jack Murphy Stadium", "Exact": "Y", "NOTES": "", "Altitude": "83", "End_D": "28"}, "HOU01": {"CITY": "Houston", "End_Y": "1964", "Start_M": "4", "END": "19640927", "NAME": "Colt Stadium", "LEAGUE": "NL", "Start_D": "10", "Longitude": "-95.4089", "START": "19620410", "STATE": "TX", "End_M": "9", "Start_Y": "1962", "Latitude": "29.6889", "AKA": "", "Exact": "Y", "NOTES": "", "Altitude": "55", "End_D": "27"}, "CIN05": {"CITY": "Cincinnati", "End_Y": "1901", "Start_M": "4", "END": "19011006", "NAME": "League Park II", "LEAGUE": "NL", "Start_D": "20", "Longitude": "-84.53587", "START": "18940420", "STATE": "OH", "End_M": "10", "Start_Y": "1894", "Latitude": "39.116804", "AKA": "", "Exact": "Y", "NOTES": "", "Altitude": "489", "End_D": "6"}, "CHI09": {"CITY": "Chicago", "End_Y": "1910", "Start_M": "4", "END": "19100627", "NAME": "South Side Park III", "LEAGUE": "AL", "Start_D": "24", "Longitude": "-87.632664", "START": "19010424", "STATE": "IL", "End_M": "6", "Start_Y": "1901", "Latitude": "41.824857", "AKA": "White Sox Park; White Stocking Park; Cricket Club Grounds; 39th Street Grounds; Schorling's Park; American Giants Park", "Exact": "Y", "NOTES": "", "Altitude": "594", "End_D": "27"}, "CHI08": {"CITY": "Chicago", "End_Y": "1915", "Start_M": "5", "END": "19151003", "NAME": "West Side Grounds", "LEAGUE": "NL", "Start_D": "14", "Longitude": "-87.67251", "START": "18930514", "STATE": "IL", "End_M": "10", "Start_Y": "1893", "Latitude": "41.870218", "AKA": "West Side Park", "Exact": "Y", "NOTES": "CHN:1893(Sun);1894-1915", "Altitude": "593", "End_D": "3"}, "CHI07": {"CITY": "Chicago", "End_Y": "1893", "Start_M": "5", "END": "18930524", "NAME": "South Side Park II", "LEAGUE": "", "Start_D": "5", "Longitude": "-87.629939", "START": "18900505", "STATE": "IL", "End_M": "5", "Start_Y": "1890", "Latitude": "41.832116", "AKA": "Brotherhood Park; 35th Street Grounds", "Exact": "Y", "NOTES": "CHP:1890;CHN:1891(Tu/Th/Sa);1892-93", "Altitude": "595", "End_D": "24"}, "CIN01": {"CITY": "Cincinnati", "End_Y": "1871", "Start_M": "5", "END": "18710722", "NAME": "Lincoln Park Grounds", "LEAGUE": "NA", "Start_D": "13", "Longitude": "-84.534652", "START": "18710513", "STATE": "OH", "End_M": "7", "Start_Y": "1871", "Latitude": "39.109827", "AKA": "Union Cricket Club Grounds; Union Grounds", "Exact": "Y", "NOTES": "WS3:5/13&7/4/1871; CL1:7/22/1871", "Altitude": "513", "End_D": "22"}, "CHI05": {"CITY": "Chicago", "End_Y": "1884", "Start_M": "5", "END": "18840801", "NAME": "South Side Park I", "LEAGUE": "UA", "Start_D": "2", "Longitude": "-87.624017", "START": "18840502", "STATE": "IL", "End_M": "8", "Start_Y": "1884", "Latitude": "41.82297", "AKA": "Cricket Club Grounds; Union Grounds; 39th Street Grounds", "Exact": "Y", "NOTES": "", "Altitude": "599", "End_D": "1"}, "CHI04": {"CITY": "Chicago", "End_Y": "1884", "Start_M": "5", "END": "18841011", "NAME": "Lake Front Park III", "LEAGUE": "NL", "Start_D": "5", "Longitude": "-87.623245", "START": "18830505", "STATE": "IL", "End_M": "10", "Start_Y": "1883", "Latitude": "41.883641", "AKA": "", "Exact": "Y", "NOTES": "", "Altitude": "585", "End_D": "11"}, "CHI03": {"CITY": "Chicago", "End_Y": "1882", "Start_M": "5", "END": "18820930", "NAME": "White Stocking Park", "LEAGUE": "NL", "Start_D": "14", "Longitude": "-87.623245", "START": "18780514", "STATE": "IL", "End_M": "9", "Start_Y": "1878", "Latitude": "41.883641", "AKA": "Lake Front Park; Lake Park; Chicago Base-Ball Grounds", "Exact": "Y", "NOTES": "", "Altitude": "585", "End_D": "30"}, "CHI02": {"CITY": "Chicago", "End_Y": "1877", "Start_M": "5", "END": "18771006", "NAME": "23rd Street Park", "LEAGUE": "", "Start_D": "29", "Longitude": "-87.62906", "START": "18720529", "STATE": "IL", "End_M": "10", "Start_Y": "1872", "Latitude": "41.851747", "AKA": "State Street Grounds; 23rd Street Park; Base Ball Park", "Exact": "Y", "NOTES": "CH2:1874-75; CHN:1876-77", "Altitude": "599", "End_D": "6"}, "CHI01": {"CITY": "Chicago", "End_Y": "1871", "Start_M": "5", "END": "18710929", "NAME": "White Stocking Grounds", "LEAGUE": "NA", "Start_D": "8", "Longitude": "-87.623245", "START": "18710508", "STATE": "IL", "End_M": "9", "Start_Y": "1871", "Latitude": "41.883641", "AKA": "Lake Front Park; Union Base-Ball Grounds; Chicago Base-Ball Grounds; Lake Shore Park; Lake Street Dumping Ground; The Dump", "Exact": "Y", "NOTES": "", "Altitude": "585", "End_D": "29"}, "SPR01": {"CITY": "Springfield", "End_Y": "1875", "Start_M": "7", "END": "18750514", "NAME": "Hampden Park Race Track", "LEAGUE": "NA", "Start_D": "23", "Longitude": "-72.605784", "START": "18720723", "STATE": "MA", "End_M": "5", "Start_Y": "1872", "Latitude": "42.107144", "AKA": "Springfield Track", "Exact": "Y", "NOTES": "TRO:7/23/1872; BS1:7/16/1873;5/14/1875", "Altitude": "67", "End_D": "14"}, "SYD01": {"CITY": "Sydney", "End_Y": "2014", "Start_M": "3", "END": "20140323", "NAME": "Sydney Cricket Ground", "LEAGUE": "", "Start_D": "22", "Longitude": "151.224722", "START": "20140322", "STATE": "AEDT", "End_M": "3", "Start_Y": "2014", "Latitude": "-33.891667", "AKA": "Sydney Cricket Ground", "Exact": "Y", "NOTES": "LA&ARI:2014", "Altitude": "41", "End_D": "23"}}